stop_id,stop_code,stop_name,stop_desc,stop_lat,stop_lon,zone_id,stop_url,location_type,parent_station,stop_timezone
22,103,Victoria - Plaza de la Merced,Parada,36.7236441803712,-4.41630272221197,,http://www.emtmalaga.es/emt-mobile/informacionParada.html?codParada=103,,,Europe/Madrid
23,104,Compás de la Victoria,Parada,36.727403106797,-4.41353701277242,,http://www.emtmalaga.es/emt-mobile/informacionParada.html?codParada=104,,,Europe/Madrid
24,105,Fernando el Católico,Parada,36.7290347057145,-4.4136977986136,,http://www.emtmalaga.es/emt-mobile/informacionParada.html?codParada=105,,,Europe/Madrid
25,106,Cristo de la Epidemia,Parada,36.7310390021741,-4.41505800399833,,http://www.emtmalaga.es/emt-mobile/informacionParada.html?codParada=106,,,Europe/Madrid
26,107,Plaza de Fuente Olletas,Parada,36.7329883049437,-4.41637202860337,,http://www.emtmalaga.es/emt-mobile/informacionParada.html?codParada=107,,,Europe/Madrid
27,109,Alameda de Barceló - San Miguel,Parada,36.7320013981093,-4.41809193667397,,http://www.emtmalaga.es/emt-mobile/informacionParada.html?codParada=109,,,Europe/Madrid
28,110,Alameda de Barceló - Monserrat,Parada,36.7313106561498,-4.42044730965978,,http://www.emtmalaga.es/emt-mobile/informacionParada.html?codParada=110,,,Europe/Madrid
29,111,San Juan Bosco - Segalerva,Parada,36.7325546735303,-4.42173887574257,,http://www.emtmalaga.es/emt-mobile/informacionParada.html?codParada=111,,,Europe/Madrid
30,112,San Juan Bosco - Albeniz,Parada,36.7342874943858,-4.42227381225111,,http://www.emtmalaga.es/emt-mobile/informacionParada.html?codParada=112,,,Europe/Madrid
31,113,San Juan Bosco - Guerrero Strachan,Parada,36.7370261122139,-4.42256026540927,,http://www.emtmalaga.es/emt-mobile/informacionParada.html?codParada=113,,,Europe/Madrid
2354,114,Av. Postas - Ntra. Sra. Guías,Parada,36.73773087493,-4.42103342060593,,http://www.emtmalaga.es/emt-mobile/informacionParada.html?codParada=114,,,Europe/Madrid
34,116,Paseo del Parque - Plaza de la Marina,Parada,36.7185384200585,-4.41901550838337,,http://www.emtmalaga.es/emt-mobile/informacionParada.html?codParada=116,,,Europe/Madrid
35,117,Paseo del Parque - Ayuntamiento,Parada,36.7195039392591,-4.41556277915793,,http://www.emtmalaga.es/emt-mobile/informacionParada.html?codParada=117,,,Europe/Madrid
37,119,Alameda Principal - Norte,Parada,36.7178676773044,-4.42204742440819,,http://www.emtmalaga.es/emt-mobile/informacionParada.html?codParada=119,,,Europe/Madrid
3556,120,Plaza John F. Kennedy,Parada,36.7501420933275,-4.42351232549656,,http://www.emtmalaga.es/emt-mobile/informacionParada.html?codParada=120,,,Europe/Madrid
39,152,Avda. de las Postas - Lorenza Correa,Parada,36.7378492350326,-4.42223578693511,,http://www.emtmalaga.es/emt-mobile/informacionParada.html?codParada=152,,,Europe/Madrid
40,153,Emilio Díaz,Parada,36.7357321651443,-4.42357557848533,,http://www.emtmalaga.es/emt-mobile/informacionParada.html?codParada=153,,,Europe/Madrid
41,154,San Juan Bosco - Albéniz,Parada,36.7340292674211,-4.42231092145318,,http://www.emtmalaga.es/emt-mobile/informacionParada.html?codParada=154,,,Europe/Madrid
42,155,San Juan Bosco - Segalerva,Parada,36.7323832149209,-4.42183942862407,,http://www.emtmalaga.es/emt-mobile/informacionParada.html?codParada=155,,,Europe/Madrid
43,156,Plaza de Capuchinos,Parada,36.729561692161,-4.42047039702174,,http://www.emtmalaga.es/emt-mobile/informacionParada.html?codParada=156,,,Europe/Madrid
44,157,Alameda de Capuchinos - El Ejido,Parada,36.73054979244,-4.4191544424112,,http://www.emtmalaga.es/emt-mobile/informacionParada.html?codParada=157,,,Europe/Madrid
45,158,Alameda de Capuchinos,Parada,36.7320241296463,-4.41720911124283,,http://www.emtmalaga.es/emt-mobile/informacionParada.html?codParada=158,,,Europe/Madrid
46,159,Cristo de la Epidemia - Fuente Olletas,Parada,36.7325158293687,-4.41555048381332,,http://www.emtmalaga.es/emt-mobile/informacionParada.html?codParada=159,,,Europe/Madrid
47,160,Cristo de la Epidemia - Tejeros,Parada,36.7292929755615,-4.41474457384238,,http://www.emtmalaga.es/emt-mobile/informacionParada.html?codParada=160,,,Europe/Madrid
48,161,Plaza de la Victoria,Parada,36.7270102742626,-4.41400515578393,,http://www.emtmalaga.es/emt-mobile/informacionParada.html?codParada=161,,,Europe/Madrid
50,163,Paseo del Parque -  Ayuntamiento,Parada,36.7200926989695,-4.41429535163391,,http://www.emtmalaga.es/emt-mobile/informacionParada.html?codParada=163,,,Europe/Madrid
51,164,Paseo del Parque,Parada,36.7195276999949,-4.41625909300687,,http://www.emtmalaga.es/emt-mobile/informacionParada.html?codParada=164,,,Europe/Madrid
55,170,Plaza de la Merced,Parada,36.7232936974659,-4.41670710244715,,http://www.emtmalaga.es/emt-mobile/informacionParada.html?codParada=170,,,Europe/Madrid
56,171,Alameda Principal - Sur,Parada,36.7178772522127,-4.42141040505447,,http://www.emtmalaga.es/emt-mobile/informacionParada.html?codParada=171,,,Europe/Madrid
57,172,Hermanos Lumiere,Parada,36.6929658539752,-4.46374222446798,,http://www.emtmalaga.es/emt-mobile/informacionParada.html?codParada=172,,,Europe/Madrid
1470,174,Florencia,Parada,36.7375083026616,-4.42105354801704,,http://www.emtmalaga.es/emt-mobile/informacionParada.html?codParada=174,,,Europe/Madrid
3557,176,Emilio Thuillier - Jardín de Malaga,Parada,36.7481811093625,-4.42155041696956,,http://www.emtmalaga.es/emt-mobile/informacionParada.html?codParada=176,,,Europe/Madrid
59,202,Pasillo de Santa Isabel,Parada,36.7201824453765,-4.42501180567746,,http://www.emtmalaga.es/emt-mobile/informacionParada.html?codParada=202,,,Europe/Madrid
62,205,Huerto de los Claveles,Parada,36.7270664308508,-4.42559415534153,,http://www.emtmalaga.es/emt-mobile/informacionParada.html?codParada=205,,,Europe/Madrid
63,206,Jorge Silvela - Cruz Roja,Parada,36.7320822506958,-4.42502196925932,,http://www.emtmalaga.es/emt-mobile/informacionParada.html?codParada=206,,,Europe/Madrid
64,207,Avda. Jorge Silvela - Fernando Loring,Parada,36.7353976825773,-4.42474209729091,,http://www.emtmalaga.es/emt-mobile/informacionParada.html?codParada=207,,,Europe/Madrid
65,208,Avda. Ramón y Cajal - Cristo Rey,Parada,36.7382994419282,-4.42409160614789,,http://www.emtmalaga.es/emt-mobile/informacionParada.html?codParada=208,,,Europe/Madrid
66,209,Avda. Ramón Y Cajal - Bda. del Carmen,Parada,36.741044829284,-4.42323475490561,,http://www.emtmalaga.es/emt-mobile/informacionParada.html?codParada=209,,,Europe/Madrid
67,210,Avda. Ramón y Cajal - Bda. Sgda. Familia,Parada,36.7432438153269,-4.42291546419264,,http://www.emtmalaga.es/emt-mobile/informacionParada.html?codParada=210,,,Europe/Madrid
68,211,Avda. Ramón y Cajal - Mercado,Parada,36.7457873528329,-4.42254105280493,,http://www.emtmalaga.es/emt-mobile/informacionParada.html?codParada=211,,,Europe/Madrid
69,212,Avda. Jacinto Benavente,Parada,36.7489703456809,-4.42353289575751,,http://www.emtmalaga.es/emt-mobile/informacionParada.html?codParada=212,,,Europe/Madrid
70,214,Arroyo del Sastre - Limonero,Parada,36.7537865629959,-4.42588740988082,,http://www.emtmalaga.es/emt-mobile/informacionParada.html?codParada=214,,,Europe/Madrid
71,228,Emilio Thuiller- Mercado,Parada,36.7466793107616,-4.42184404020072,,http://www.emtmalaga.es/emt-mobile/informacionParada.html?codParada=228,,,Europe/Madrid
72,229,Atarazanas,Parada,36.717881059831,-4.42456064257221,,http://www.emtmalaga.es/emt-mobile/informacionParada.html?codParada=229,,,Europe/Madrid
73,230,Puente de la Aurora,Parada,36.7223007030238,-4.42524736000711,,http://www.emtmalaga.es/emt-mobile/informacionParada.html?codParada=230,,,Europe/Madrid
75,251,San José,Parada,36.7554252032308,-4.42556633655282,,http://www.emtmalaga.es/emt-mobile/informacionParada.html?codParada=251,,,Europe/Madrid
76,252,Camino de Casabermeja,Parada,36.7529613741217,-4.42417358736773,,http://www.emtmalaga.es/emt-mobile/informacionParada.html?codParada=252,,,Europe/Madrid
77,253,Avda. de la Aurora - Correos,Parada,36.7158577865903,-4.42703051028971,,http://www.emtmalaga.es/emt-mobile/informacionParada.html?codParada=253,,,Europe/Madrid
78,254,Avda. Ramón y Cajal - Mercado,Parada,36.7458040097893,-4.42272809122507,,http://www.emtmalaga.es/emt-mobile/informacionParada.html?codParada=254,,,Europe/Madrid
79,255,Avda. Ramón y Cajal - Bda. Sgda. Familia,Parada,36.7433306023542,-4.42310313073364,,http://www.emtmalaga.es/emt-mobile/informacionParada.html?codParada=255,,,Europe/Madrid
80,256,Avda. Ramón y Cajal - Bda. Del Carmen,Parada,36.7409328688051,-4.42346585884826,,http://www.emtmalaga.es/emt-mobile/informacionParada.html?codParada=256,,,Europe/Madrid
81,257,Avda. Ramón y Cajal - Cristo Rey,Parada,36.7386872224779,-4.42412649594411,,http://www.emtmalaga.es/emt-mobile/informacionParada.html?codParada=257,,,Europe/Madrid
82,258,Avda. Jorge Silvela,Parada,36.735161513655,-4.42505158588651,,http://www.emtmalaga.es/emt-mobile/informacionParada.html?codParada=258,,,Europe/Madrid
83,259,Paseo de Martiricos,Parada,36.7295727244502,-4.42707544646953,,http://www.emtmalaga.es/emt-mobile/informacionParada.html?codParada=259,,,Europe/Madrid
84,260,Avda. Fátima,Parada,36.7256083664142,-4.4266334906967,,http://www.emtmalaga.es/emt-mobile/informacionParada.html?codParada=260,,,Europe/Madrid
85,261,Avda. de Fátima - Trinidad,Parada,36.7232909894517,-4.42618160704756,,http://www.emtmalaga.es/emt-mobile/informacionParada.html?codParada=261,,,Europe/Madrid
86,262,Santo Domingo - Perchel,Parada,36.7203046170789,-4.42574148798327,,http://www.emtmalaga.es/emt-mobile/informacionParada.html?codParada=262,,,Europe/Madrid
87,263,Avda. Jacinto Benavente,Parada,36.7488919135559,-4.42376802612807,,http://www.emtmalaga.es/emt-mobile/informacionParada.html?codParada=263,,,Europe/Madrid
88,264,Cmno. Casabermeja - Polideportivo,Parada,36.7508650927622,-4.42295180324071,,http://www.emtmalaga.es/emt-mobile/informacionParada.html?codParada=264,,,Europe/Madrid
91,301,Paseo del Parque - Plaza del General Torrijos,Parada,36.7204107322026,-4.41329308342681,,http://www.emtmalaga.es/emt-mobile/informacionParada.html?codParada=301,,,Europe/Madrid
92,302,Paseo del Parque,Parada,36.7194747921578,-4.41645789709631,,http://www.emtmalaga.es/emt-mobile/informacionParada.html?codParada=302,,,Europe/Madrid
93,303,Paseo del Parque - Plaza Marina,Parada,36.7187377513822,-4.41910216340702,,http://www.emtmalaga.es/emt-mobile/informacionParada.html?codParada=303,,,Europe/Madrid
95,305,Avda. de Andalucía - Hacienda,Parada,36.716938160579,-4.42674378255199,,http://www.emtmalaga.es/emt-mobile/informacionParada.html?codParada=305,,,Europe/Madrid
96,306,Cuarteles - Perchel,Parada,36.7152592400276,-4.42677447487454,,http://www.emtmalaga.es/emt-mobile/informacionParada.html?codParada=306,,,Europe/Madrid
97,307,Cuarteles - Eslava,Parada,36.7127824107876,-4.42929348812744,,http://www.emtmalaga.es/emt-mobile/informacionParada.html?codParada=307,,,Europe/Madrid
98,308,Héroe de Sostoa - Estación,Parada,36.711134191975,-4.43147296533549,,http://www.emtmalaga.es/emt-mobile/informacionParada.html?codParada=308,,,Europe/Madrid
99,309,Héroe de Sostoa - La Isla,Parada,36.7087420793719,-4.4344735845921,,http://www.emtmalaga.es/emt-mobile/informacionParada.html?codParada=309,,,Europe/Madrid
100,310,Héroe de Sostoa - Jardín de la Abadía,Parada,36.7066504451712,-4.43712133299618,,http://www.emtmalaga.es/emt-mobile/informacionParada.html?codParada=310,,,Europe/Madrid
101,312,Héroe de Sostoa - Obras Públicas,Parada,36.7048440485861,-4.43942840725514,,http://www.emtmalaga.es/emt-mobile/informacionParada.html?codParada=312,,,Europe/Madrid
102,313,Héroe de Sostoa - Bda. Girón,Parada,36.7022938618319,-4.44270378337385,,http://www.emtmalaga.es/emt-mobile/informacionParada.html?codParada=313,,,Europe/Madrid
103,314,Avda. de Velázquez - Bda. El Torcal,Parada,36.7002436869291,-4.44538309511649,,http://www.emtmalaga.es/emt-mobile/informacionParada.html?codParada=314,,,Europe/Madrid
104,315,Avda. de Velázquez - Vistafranca,Parada,36.6974843726707,-4.44891930454752,,http://www.emtmalaga.es/emt-mobile/informacionParada.html?codParada=315,,,Europe/Madrid
105,316,Avda. de Velázquez - Bda. La Luz,Parada,36.6960001997295,-4.45077094232899,,http://www.emtmalaga.es/emt-mobile/informacionParada.html?codParada=316,,,Europe/Madrid
106,317,Avda. de Velázquez - Bda. Belén,Parada,36.69365975194,-4.45378637498701,,http://www.emtmalaga.es/emt-mobile/informacionParada.html?codParada=317,,,Europe/Madrid
107,318,Avda. de los Guindos,Parada,36.6929701642747,-4.45354672961635,,http://www.emtmalaga.es/emt-mobile/informacionParada.html?codParada=318,,,Europe/Madrid
108,319,Camino del Pato,Parada,36.6912803482609,-4.45035508934396,,http://www.emtmalaga.es/emt-mobile/informacionParada.html?codParada=319,,,Europe/Madrid
109,320,Avda. Gregorio Diego,Parada,36.6901027717141,-4.45178875633429,,http://www.emtmalaga.es/emt-mobile/informacionParada.html?codParada=320,,,Europe/Madrid
111,322,Alameda Principal - Sur,Parada,36.7177975904156,-4.42169453790643,,http://www.emtmalaga.es/emt-mobile/informacionParada.html?codParada=322,,,Europe/Madrid
112,351,Puerta Blanca - Gregorio Diego,Parada,36.691048226077,-4.45322967967525,,http://www.emtmalaga.es/emt-mobile/informacionParada.html?codParada=351,,,Europe/Madrid
113,352,Avda. de Gregorio Diego,Parada,36.6918490279734,-4.45486123166613,,http://www.emtmalaga.es/emt-mobile/informacionParada.html?codParada=352,,,Europe/Madrid
114,353,Avda. de Velázquez - Los Guindos,Parada,36.6940464702553,-4.45287254711805,,http://www.emtmalaga.es/emt-mobile/informacionParada.html?codParada=353,,,Europe/Madrid
115,354,Avda. de Velázquez - Bda. La Paz,Parada,36.6959886246524,-4.45039820963596,,http://www.emtmalaga.es/emt-mobile/informacionParada.html?codParada=354,,,Europe/Madrid
116,355,Avda. de Velázquez - Vistafranca,Parada,36.6975296328586,-4.44845169784939,,http://www.emtmalaga.es/emt-mobile/informacionParada.html?codParada=355,,,Europe/Madrid
117,356,Avda. de Velázquez - El Torcal,Parada,36.7001570664578,-4.44510801909877,,http://www.emtmalaga.es/emt-mobile/informacionParada.html?codParada=356,,,Europe/Madrid
118,357,Avda. de la Paloma - Bda. Girón,Parada,36.7009386177801,-4.44267686424414,,http://www.emtmalaga.es/emt-mobile/informacionParada.html?codParada=357,,,Europe/Madrid
119,360,Ayala - Jardín de la Abadía,Parada,36.7057564597761,-4.43610472357954,,http://www.emtmalaga.es/emt-mobile/informacionParada.html?codParada=360,,,Europe/Madrid
120,361,Ayala - Iglesia,Parada,36.7072858466713,-4.43443604526926,,http://www.emtmalaga.es/emt-mobile/informacionParada.html?codParada=361,,,Europe/Madrid
121,362,Ayala - Los Arcos,Parada,36.7097161753084,-4.43152442244947,,http://www.emtmalaga.es/emt-mobile/informacionParada.html?codParada=362,,,Europe/Madrid
122,364,Salitre - Pasillo del Matadero,Parada,36.7141906651977,-4.4265784777572,,http://www.emtmalaga.es/emt-mobile/informacionParada.html?codParada=364,,,Europe/Madrid
124,366,Paseo del Parque - Plaza de la Marina,Parada,36.7186072868437,-4.41878118218512,,http://www.emtmalaga.es/emt-mobile/informacionParada.html?codParada=366,,,Europe/Madrid
125,367,Paseo del Parque,Parada,36.7193659431963,-4.41605299742225,,http://www.emtmalaga.es/emt-mobile/informacionParada.html?codParada=367,,,Europe/Madrid
126,368,Salitre - Jacinto Verdaguer,Parada,36.7118070677139,-4.42897250493881,,http://www.emtmalaga.es/emt-mobile/informacionParada.html?codParada=368,,,Europe/Madrid
128,370,Alameda Principal - Norte,Parada,36.7177936307756,-4.42231412375672,,http://www.emtmalaga.es/emt-mobile/informacionParada.html?codParada=370,,,Europe/Madrid
129,401,Paseo del Parque - Plaza del General Torrijos,Parada,36.7201208783166,-4.41330957850537,,http://www.emtmalaga.es/emt-mobile/informacionParada.html?codParada=401,,,Europe/Madrid
130,402,Plaza de Toros Vieja,Parada,36.7124178144739,-4.42729058772121,,http://www.emtmalaga.es/emt-mobile/informacionParada.html?codParada=402,,,Europe/Madrid
131,403,Av. Explanada de la Estación - Estacion FFCC,Parada,36.7125307152924,-4.43077558962068,,http://www.emtmalaga.es/emt-mobile/informacionParada.html?codParada=403,,,Europe/Madrid
133,406,Paseo de los Tilos - Calatrava,Parada,36.7130277595528,-4.43777908765562,,http://www.emtmalaga.es/emt-mobile/informacionParada.html?codParada=406,,,Europe/Madrid
134,407,Paseo de los Tilos - Cruz de Humilladero,Parada,36.7121723810492,-4.44009108058561,,http://www.emtmalaga.es/emt-mobile/informacionParada.html?codParada=407,,,Europe/Madrid
135,408,Av. Ortega y Gasset - Cruz de Humilladero,Parada,36.7121169567476,-4.44215667461796,,http://www.emtmalaga.es/emt-mobile/informacionParada.html?codParada=408,,,Europe/Madrid
136,409,Avda. Ortega y Gasset - Santa Julia,Parada,36.7115817767495,-4.44503039231352,,http://www.emtmalaga.es/emt-mobile/informacionParada.html?codParada=409,,,Europe/Madrid
137,410,Avda. Ortega y Gasset - Bda. El Carmen,Parada,36.7110317787887,-4.44808579320838,,http://www.emtmalaga.es/emt-mobile/informacionParada.html?codParada=410,,,Europe/Madrid
138,411,Corregidor Antonio de Bobadilla - Instituto,Parada,36.712448786528,-4.44928321028502,,http://www.emtmalaga.es/emt-mobile/informacionParada.html?codParada=411,,,Europe/Madrid
139,412,Corregidor Francisco de Molina - Corazones,Parada,36.7130475735802,-4.45126476276851,,http://www.emtmalaga.es/emt-mobile/informacionParada.html?codParada=412,,,Europe/Madrid
141,414,Avda. Ortega y Gasset - Tiro de Pichón,Parada,36.7100625028683,-4.45321220656136,,http://www.emtmalaga.es/emt-mobile/informacionParada.html?codParada=414,,,Europe/Madrid
142,415,Avda. Ortega y Gasset - Santa Cristina,Parada,36.7094036342906,-4.45613771893664,,http://www.emtmalaga.es/emt-mobile/informacionParada.html?codParada=415,,,Europe/Madrid
143,416,Avda. de Andalucía,Parada,36.7169379513597,-4.42882223593654,,http://www.emtmalaga.es/emt-mobile/informacionParada.html?codParada=416,,,Europe/Madrid
144,417,Callejones del Perchel - Mercado,Parada,36.7149821504917,-4.43043741239417,,http://www.emtmalaga.es/emt-mobile/informacionParada.html?codParada=417,,,Europe/Madrid
145,418,Max Estrella - Palacio de Ferias,Parada,36.7085085612923,-4.46192166451594,,http://www.emtmalaga.es/emt-mobile/informacionParada.html?codParada=418,,,Europe/Madrid
146,419,Mefistofeles - Cortijo Alto,Parada,36.7103964199582,-4.46276633843923,,http://www.emtmalaga.es/emt-mobile/informacionParada.html?codParada=419,,,Europe/Madrid
147,420,Gregorio Prieto - Ciudad de la Justicia,Parada,36.7135196965506,-4.46275393541488,,http://www.emtmalaga.es/emt-mobile/informacionParada.html?codParada=420,,,Europe/Madrid
148,421,Louis Pasteur - Manuel Domínguez,Parada,36.7179120477048,-4.46486081257121,,http://www.emtmalaga.es/emt-mobile/informacionParada.html?codParada=421,,,Europe/Madrid
150,423,Av Gregorio Prieto - Pasteur,Parada,36.7171694943266,-4.46385545957462,,http://www.emtmalaga.es/emt-mobile/informacionParada.html?codParada=423,,,Europe/Madrid
152,425,Alameda Principal - Norte,Parada,36.7175426525716,-4.42322420029927,,http://www.emtmalaga.es/emt-mobile/informacionParada.html?codParada=425,,,Europe/Madrid
3956,426,Paseo del Parque,Parada,36.7197691753423,-4.41542644722173,,http://www.emtmalaga.es/emt-mobile/informacionParada.html?codParada=426,,,Europe/Madrid
5184,427,Paseo del Parque - Plaza de la Marina,Parada,36.7188143892157,-4.41881328823176,,http://www.emtmalaga.es/emt-mobile/informacionParada.html?codParada=427,,,Europe/Madrid
154,452,Avda. Ortega y Gasset - Tiro de Pichón,Parada,36.7100585848261,-4.45227109573264,,http://www.emtmalaga.es/emt-mobile/informacionParada.html?codParada=452,,,Europe/Madrid
155,453,Avda. Ortega y Gasset - La Rosa,Parada,36.7103481026038,-4.45077691496019,,http://www.emtmalaga.es/emt-mobile/informacionParada.html?codParada=453,,,Europe/Madrid
156,454,Avda. Ortega y Gasset,Parada,36.7107662334422,-4.44845402397739,,http://www.emtmalaga.es/emt-mobile/informacionParada.html?codParada=454,,,Europe/Madrid
157,455,Avda. Ortega y Gasset - Bda. El Carmen,Parada,36.7109732384667,-4.44703584774843,,http://www.emtmalaga.es/emt-mobile/informacionParada.html?codParada=455,,,Europe/Madrid
158,456,Avda. Ortega y Gasset - Santa Julia,Parada,36.7115080041313,-4.44423887306376,,http://www.emtmalaga.es/emt-mobile/informacionParada.html?codParada=456,,,Europe/Madrid
159,457,Cruz de Humilladero,Parada,36.7117416631513,-4.44092891855215,,http://www.emtmalaga.es/emt-mobile/informacionParada.html?codParada=457,,,Europe/Madrid
160,458,La Unión - Sta Marta,Parada,36.7110177935817,-4.43929269593353,,http://www.emtmalaga.es/emt-mobile/informacionParada.html?codParada=458,,,Europe/Madrid
162,460,La Unión - Edisson,Parada,36.7119680033536,-4.43615235089288,,http://www.emtmalaga.es/emt-mobile/informacionParada.html?codParada=460,,,Europe/Madrid
163,462,Avda. Antonio Machado - Nuevo Puente del Carmen,Parada,36.711789566101,-4.42523665221806,,http://www.emtmalaga.es/emt-mobile/informacionParada.html?codParada=462,,,Europe/Madrid
164,463,Avda. Ortega y Gasset - Palacio de Ferias,Parada,36.7073798203157,-4.46023464205314,,http://www.emtmalaga.es/emt-mobile/informacionParada.html?codParada=463,,,Europe/Madrid
165,464,Avda. Ortega y Gasset - Sta. Cristina,Parada,36.7095396499025,-4.45460563016668,,http://www.emtmalaga.es/emt-mobile/informacionParada.html?codParada=464,,,Europe/Madrid
167,466,Corregidor Francisco de Molina - Corazones,Parada,36.7130562359206,-4.45039591050715,,http://www.emtmalaga.es/emt-mobile/informacionParada.html?codParada=466,,,Europe/Madrid
169,468,Paseo de los Tilos - Estación de Autobuses,Parada,36.7133293790146,-4.43392662254865,,http://www.emtmalaga.es/emt-mobile/informacionParada.html?codParada=468,,,Europe/Madrid
170,469,Callejones del Perchel - Mercado,Parada,36.7152693405494,-4.42975606831404,,http://www.emtmalaga.es/emt-mobile/informacionParada.html?codParada=469,,,Europe/Madrid
171,470,Alameda Principal - Sur,Parada,36.7174816019437,-4.42284939100992,,http://www.emtmalaga.es/emt-mobile/informacionParada.html?codParada=470,,,Europe/Madrid
172,472,Louis Pasteur - Manuel Domínguez,Parada,36.7177704410814,-4.46454485827583,,http://www.emtmalaga.es/emt-mobile/informacionParada.html?codParada=472,,,Europe/Madrid
173,473,Gregorio Prieto - Ciudad de la Justicia,Parada,36.7136670308183,-4.46313965511547,,http://www.emtmalaga.es/emt-mobile/informacionParada.html?codParada=473,,,Europe/Madrid
174,474,Mefistofeles  - Cortijo Alto,Parada,36.7098943404187,-4.46310428652874,,http://www.emtmalaga.es/emt-mobile/informacionParada.html?codParada=474,,,Europe/Madrid
175,475,Max Estrella - Cortijo Alto,Parada,36.7084293112103,-4.46200669052485,,http://www.emtmalaga.es/emt-mobile/informacionParada.html?codParada=475,,,Europe/Madrid
176,476,Gregorio Prieto - Franz Kafka,Parada,36.7160383346442,-4.46362167404505,,http://www.emtmalaga.es/emt-mobile/informacionParada.html?codParada=476,,,Europe/Madrid
177,477,Avda. Ortega y Gasset - La Rosa,Parada,36.7105299498124,-4.45101591861091,,http://www.emtmalaga.es/emt-mobile/informacionParada.html?codParada=477,,,Europe/Madrid
180,501,Av. Explanada de la Estación - Estación FFCC,Parada,36.7121623720997,-4.4310853844624,,http://www.emtmalaga.es/emt-mobile/informacionParada.html?codParada=501,,,Europe/Madrid
181,502,Plaza de Arriola,Parada,36.7185816744443,-4.42462640096737,,http://www.emtmalaga.es/emt-mobile/informacionParada.html?codParada=502,,,Europe/Madrid
182,503,Carretería - Puerta Nueva,Parada,36.7216569372619,-4.4249447802833,,http://www.emtmalaga.es/emt-mobile/informacionParada.html?codParada=503,,,Europe/Madrid
184,505,Carretería - Álamos,Parada,36.7240891839545,-4.4215414438045,,http://www.emtmalaga.es/emt-mobile/informacionParada.html?codParada=505,,,Europe/Madrid
185,506,Álamos,Parada,36.7235342883805,-4.41916916091015,,http://www.emtmalaga.es/emt-mobile/informacionParada.html?codParada=506,,,Europe/Madrid
1433,508,Victoria ,Parada,36.7257577446679,-4.41459443574527,,http://www.emtmalaga.es/emt-mobile/informacionParada.html?codParada=508,,,Europe/Madrid
187,509,Ferrándiz,Parada,36.7270342105962,-4.41313059519513,,http://www.emtmalaga.es/emt-mobile/informacionParada.html?codParada=509,,,Europe/Madrid
189,511,Dr. Ortiz Ramos,Parada,36.7162013821802,-4.49052542967814,,http://www.emtmalaga.es/emt-mobile/informacionParada.html?codParada=511,,,Europe/Madrid
3776,513,Av. Monserrat Caballé - Centro Comercial,Parada,36.6567082620778,-4.48385006220308,,http://www.emtmalaga.es/emt-mobile/informacionParada.html?codParada=513,,,Europe/Madrid
194,556,Avda. Arroyo de los Ángeles - Guardia Civil,Parada,36.727959918732,-4.42919921516592,,http://www.emtmalaga.es/emt-mobile/informacionParada.html?codParada=556,,,Europe/Madrid
195,557,Avda. de Barcelona - Hospital Civil,Parada,36.7257344799806,-4.43098732308576,,http://www.emtmalaga.es/emt-mobile/informacionParada.html?codParada=557,,,Europe/Madrid
196,558,Plaza de Bailén,Parada,36.7243720295616,-4.4318008903559,,http://www.emtmalaga.es/emt-mobile/informacionParada.html?codParada=558,,,Europe/Madrid
197,559,Alonso de Palencia,Parada,36.7206137124556,-4.43278000177751,,http://www.emtmalaga.es/emt-mobile/informacionParada.html?codParada=559,,,Europe/Madrid
198,560,Hilera,Parada,36.718385741462,-4.43089763903431,,http://www.emtmalaga.es/emt-mobile/informacionParada.html?codParada=560,,,Europe/Madrid
200,562,Dr. Ortiz Ramos,Parada,36.7160788201609,-4.49041017942287,,http://www.emtmalaga.es/emt-mobile/informacionParada.html?codParada=562,,,Europe/Madrid
202,564,Avda. Plutarco - Parmenides,Parada,36.7213613177807,-4.47921716699424,,http://www.emtmalaga.es/emt-mobile/informacionParada.html?codParada=564,,,Europe/Madrid
3777,565,Av. Monserrat Caballé - Centro Comercial,Parada,36.6560310190785,-4.48368449502677,,http://www.emtmalaga.es/emt-mobile/informacionParada.html?codParada=565,,,Europe/Madrid
204,602,Mármoles,Parada,36.7215817606559,-4.43013509217178,,http://www.emtmalaga.es/emt-mobile/informacionParada.html?codParada=602,,,Europe/Madrid
205,603,Avda. de Barcelona,Parada,36.722338923654,-4.43165237055837,,http://www.emtmalaga.es/emt-mobile/informacionParada.html?codParada=603,,,Europe/Madrid
206,604,Plaza de Bailén,Parada,36.7244642500896,-4.43139119261578,,http://www.emtmalaga.es/emt-mobile/informacionParada.html?codParada=604,,,Europe/Madrid
207,605,Camino de Suárez - Blas de Lezo,Parada,36.7270721857401,-4.43545438540934,,http://www.emtmalaga.es/emt-mobile/informacionParada.html?codParada=605,,,Europe/Madrid
208,606,Camino de Suárez - C/ Alonso Hernández,Parada,36.7275803415284,-4.43851652406243,,http://www.emtmalaga.es/emt-mobile/informacionParada.html?codParada=606,,,Europe/Madrid
209,607,Camino de Suárez - C/ Venegas,Parada,36.7280463728056,-4.44030155248254,,http://www.emtmalaga.es/emt-mobile/informacionParada.html?codParada=607,,,Europe/Madrid
210,608,Camino de Suárez - Rotonda,Parada,36.7290289503357,-4.44303408407504,,http://www.emtmalaga.es/emt-mobile/informacionParada.html?codParada=608,,,Europe/Madrid
211,609,Miguel Hernández - Alcalde Jose Luis Estrada,Parada,36.7312529959131,-4.4458612168015,,http://www.emtmalaga.es/emt-mobile/informacionParada.html?codParada=609,,,Europe/Madrid
213,611,Camino de la Corta - VPO,Parada,36.7344406264705,-4.44686855302462,,http://www.emtmalaga.es/emt-mobile/informacionParada.html?codParada=611,,,Europe/Madrid
214,612,Camino de la Corta - La Milagrosa,Parada,36.7356171107343,-4.44892323499759,,http://www.emtmalaga.es/emt-mobile/informacionParada.html?codParada=612,,,Europe/Madrid
215,613,Camino de la Corta - Plaza,Parada,36.7363270286467,-4.45100390524976,,http://www.emtmalaga.es/emt-mobile/informacionParada.html?codParada=613,,,Europe/Madrid
216,621,Armengual de la Mota,Parada,36.7191048982015,-4.42921069935913,,http://www.emtmalaga.es/emt-mobile/informacionParada.html?codParada=621,,,Europe/Madrid
218,623,Hilera - Armengual de la Mota,Parada,36.7179634087161,-4.42826721606146,,http://www.emtmalaga.es/emt-mobile/informacionParada.html?codParada=623,,,Europe/Madrid
219,624,Camino de la Corta - Capitán Eliseo,Parada,36.7359319198897,-4.45029246645809,,http://www.emtmalaga.es/emt-mobile/informacionParada.html?codParada=624,,,Europe/Madrid
220,625,Camino San Alberto - Tormes,Parada,36.7360511080973,-4.45280141116325,,http://www.emtmalaga.es/emt-mobile/informacionParada.html?codParada=625,,,Europe/Madrid
221,626,Camino  San Alberto,Parada,36.7349789741756,-4.4520732603041,,http://www.emtmalaga.es/emt-mobile/informacionParada.html?codParada=626,,,Europe/Madrid
222,627,Camino  San Alberto - Riotinto,Parada,36.7337062773866,-4.4512361753496,,http://www.emtmalaga.es/emt-mobile/informacionParada.html?codParada=627,,,Europe/Madrid
223,628,Camino Suárez - Rotonda,Parada,36.7289653938017,-4.44282880049871,,http://www.emtmalaga.es/emt-mobile/informacionParada.html?codParada=628,,,Europe/Madrid
224,629,Alcalde José Luis Estrada,Parada,36.7302059885869,-4.44535315331827,,http://www.emtmalaga.es/emt-mobile/informacionParada.html?codParada=629,,,Europe/Madrid
3648,630,José Carrión de Mula,Parada,36.7326509396219,-4.44542092032624,,http://www.emtmalaga.es/emt-mobile/informacionParada.html?codParada=630,,,Europe/Madrid
3649,631,Juan Rejano,Parada,36.7329039547558,-4.44598683974463,,http://www.emtmalaga.es/emt-mobile/informacionParada.html?codParada=631,,,Europe/Madrid
230,657,Martínez de la Rosa -  Albacete,Parada,36.7280850611826,-4.44377904794543,,http://www.emtmalaga.es/emt-mobile/informacionParada.html?codParada=657,,,Europe/Madrid
232,659,Martínez de la Rosa,Parada,36.7269687997442,-4.4402911600143,,http://www.emtmalaga.es/emt-mobile/informacionParada.html?codParada=659,,,Europe/Madrid
233,660,Martínez de la Rosa - Berrocal,Parada,36.7261189383052,-4.43652596339561,,http://www.emtmalaga.es/emt-mobile/informacionParada.html?codParada=660,,,Europe/Madrid
234,661,Martínez de la Rosa - Séneca,Parada,36.7258276740521,-4.43483760375753,,http://www.emtmalaga.es/emt-mobile/informacionParada.html?codParada=661,,,Europe/Madrid
235,662,Avda. de Andalucía,Parada,36.716594107658,-4.4278941295928,,http://www.emtmalaga.es/emt-mobile/informacionParada.html?codParada=662,,,Europe/Madrid
236,663,Galeno,Parada,36.7293974488636,-4.44564333943322,,http://www.emtmalaga.es/emt-mobile/informacionParada.html?codParada=663,,,Europe/Madrid
237,702,Avda. Dr. Gálvez Ginachero - Hospital Civil,Parada,36.7268737281865,-4.42966964559081,,http://www.emtmalaga.es/emt-mobile/informacionParada.html?codParada=702,,,Europe/Madrid
238,703,Avda. Arroyo de los Ángeles - Hospital Materno,Parada,36.7288647875254,-4.43169000552573,,http://www.emtmalaga.es/emt-mobile/informacionParada.html?codParada=703,,,Europe/Madrid
239,704,Avda. Arroyo de los Ángeles - Blas de Lezo,Parada,36.7300922997455,-4.43443630572021,,http://www.emtmalaga.es/emt-mobile/informacionParada.html?codParada=704,,,Europe/Madrid
240,705,Av. Arroyo de los Ángeles - Parque Victoria Eugenia,Parada,36.731637118819,-4.43655731682895,,http://www.emtmalaga.es/emt-mobile/informacionParada.html?codParada=705,,,Europe/Madrid
241,706,Ntra. Sra. De los Clarines - Gibraljaire,Parada,36.7312390090542,-4.43812059171627,,http://www.emtmalaga.es/emt-mobile/informacionParada.html?codParada=706,,,Europe/Madrid
242,707,Ntra. Sra. Clarines - Pza. Monseñor Bocanegra,Parada,36.7304212385182,-4.43909721349404,,http://www.emtmalaga.es/emt-mobile/informacionParada.html?codParada=707,,,Europe/Madrid
244,709,Camino de Suárez - Cabas Galván,Parada,36.728334940993,-4.44113673490661,,http://www.emtmalaga.es/emt-mobile/informacionParada.html?codParada=709,,,Europe/Madrid
245,710,Alcalde José Luis Estrada,Parada,36.7307941721256,-4.44795410520057,,http://www.emtmalaga.es/emt-mobile/informacionParada.html?codParada=710,,,Europe/Madrid
246,711,Camino de San Alberto - Carlinda,Parada,36.7310563183108,-4.4496213460426,,http://www.emtmalaga.es/emt-mobile/informacionParada.html?codParada=711,,,Europe/Madrid
248,713,Diego de Baena,Parada,36.7326059851176,-4.45218468816958,,http://www.emtmalaga.es/emt-mobile/informacionParada.html?codParada=713,,,Europe/Madrid
249,714,Platero - San Alberto,Parada,36.7338079882327,-4.45286374245472,,http://www.emtmalaga.es/emt-mobile/informacionParada.html?codParada=714,,,Europe/Madrid
250,715,Tambre,Parada,36.7328952590372,-4.45148164279366,,http://www.emtmalaga.es/emt-mobile/informacionParada.html?codParada=715,,,Europe/Madrid
253,718,Alameda Principal - Norte,Parada,36.7174685350635,-4.42350038300882,,http://www.emtmalaga.es/emt-mobile/informacionParada.html?codParada=718,,,Europe/Madrid
254,751,Camino de San Alberto,Parada,36.7318535039195,-4.45064984169438,,http://www.emtmalaga.es/emt-mobile/informacionParada.html?codParada=751,,,Europe/Madrid
255,754,Camino San Alberto - Granja Suárez,Parada,36.7311212080895,-4.44991746092109,,http://www.emtmalaga.es/emt-mobile/informacionParada.html?codParada=754,,,Europe/Madrid
256,755,Galeno - Carlinda,Parada,36.7300750062069,-4.4481735255552,,http://www.emtmalaga.es/emt-mobile/informacionParada.html?codParada=755,,,Europe/Madrid
257,756,Barón de Les,Parada,36.7277164208536,-4.44089893493566,,http://www.emtmalaga.es/emt-mobile/informacionParada.html?codParada=756,,,Europe/Madrid
259,758,Ntra. Sra. Clarines - Pza. Monseñor Bocanegra,Parada,36.7296933926706,-4.43958754009484,,http://www.emtmalaga.es/emt-mobile/informacionParada.html?codParada=758,,,Europe/Madrid
260,759,Ntra. Sra. de los Clarines - Gibraljaire,Parada,36.7311596180187,-4.43794776352582,,http://www.emtmalaga.es/emt-mobile/informacionParada.html?codParada=759,,,Europe/Madrid
261,760,Av. Arroyo de los Ángeles - Parque Victoria Eugenia,Parada,36.7308764740729,-4.43593415159075,,http://www.emtmalaga.es/emt-mobile/informacionParada.html?codParada=760,,,Europe/Madrid
262,761,Avda. Arroyo de los Ángeles - Blas de Lezo,Parada,36.7292271010501,-4.43342611421112,,http://www.emtmalaga.es/emt-mobile/informacionParada.html?codParada=761,,,Europe/Madrid
263,762,Avda. Arroyo de los Ángeles - Hospital Materno,Parada,36.7284437946794,-4.43130871488335,,http://www.emtmalaga.es/emt-mobile/informacionParada.html?codParada=762,,,Europe/Madrid
265,791,Alameda Principal - Sur,Parada,36.7173320492103,-4.42339445069408,,http://www.emtmalaga.es/emt-mobile/informacionParada.html?codParada=791,,,Europe/Madrid
267,802,Martínez Maldonado - Eugenio Gross,Parada,36.7215918060027,-4.43631648721241,,http://www.emtmalaga.es/emt-mobile/informacionParada.html?codParada=802,,,Europe/Madrid
268,803,Martínez Maldonado - Las Chapas,Parada,36.7215916785969,-4.43899460254834,,http://www.emtmalaga.es/emt-mobile/informacionParada.html?codParada=803,,,Europe/Madrid
269,804,Martínez Maldonado - Arroyo del Cuarto,Parada,36.7215625374957,-4.441303626948,,http://www.emtmalaga.es/emt-mobile/informacionParada.html?codParada=804,,,Europe/Madrid
270,805,Avda. Carlos Haya - Parque del Norte,Parada,36.7216521087615,-4.44405271440421,,http://www.emtmalaga.es/emt-mobile/informacionParada.html?codParada=805,,,Europe/Madrid
271,806,Avda. Carlos Haya - Los Remedios,Parada,36.7221281818385,-4.44651566321902,,http://www.emtmalaga.es/emt-mobile/informacionParada.html?codParada=806,,,Europe/Madrid
272,807,Avda. Carlos Haya - Hospital,Parada,36.7227717659573,-4.45037488163568,,http://www.emtmalaga.es/emt-mobile/informacionParada.html?codParada=807,,,Europe/Madrid
273,808,Avda. Carlos Haya - Parque Florida,Parada,36.7231223289676,-4.45255225095431,,http://www.emtmalaga.es/emt-mobile/informacionParada.html?codParada=808,,,Europe/Madrid
274,809,Avda. Carlos Haya - Ortega Prados,Parada,36.7236700439808,-4.45425232541682,,http://www.emtmalaga.es/emt-mobile/informacionParada.html?codParada=809,,,Europe/Madrid
275,810,Avda. Carlos Haya - Alcubilla,Parada,36.7249885753656,-4.45710876303877,,http://www.emtmalaga.es/emt-mobile/informacionParada.html?codParada=810,,,Europe/Madrid
276,811,Avda. Carlos Haya - Teatinos,Parada,36.7260481013427,-4.46009371293427,,http://www.emtmalaga.es/emt-mobile/informacionParada.html?codParada=811,,,Europe/Madrid
277,812,Navarro Ledesma - Quinta Alegre,Parada,36.7253464688933,-4.46520031266491,,http://www.emtmalaga.es/emt-mobile/informacionParada.html?codParada=812,,,Europe/Madrid
278,813,Navarro Ledesma - Colonia Sta. Inés,Parada,36.7251057696429,-4.46695692615387,,http://www.emtmalaga.es/emt-mobile/informacionParada.html?codParada=813,,,Europe/Madrid
279,814,Navarro Ledesma - Ciudad Sta. Inés,Parada,36.7247151825045,-4.47009435473116,,http://www.emtmalaga.es/emt-mobile/informacionParada.html?codParada=814,,,Europe/Madrid
280,815,Avda. de José Ribera - La Palma,Parada,36.722152860777,-4.47256204022759,,http://www.emtmalaga.es/emt-mobile/informacionParada.html?codParada=815,,,Europe/Madrid
281,816,Avda. de José Ribera,Parada,36.7194923858411,-4.47149292507502,,http://www.emtmalaga.es/emt-mobile/informacionParada.html?codParada=816,,,Europe/Madrid
282,817,Facultad de Derecho,Parada,36.7176855657086,-4.47095037946637,,http://www.emtmalaga.es/emt-mobile/informacionParada.html?codParada=817,,,Europe/Madrid
283,818,Facultad de Medicina,Parada,36.716924563961,-4.47444575707025,,http://www.emtmalaga.es/emt-mobile/informacionParada.html?codParada=818,,,Europe/Madrid
284,819,Navarro Ledesma - Carril del Capitán,Parada,36.7256450658761,-4.4630485987854,,http://www.emtmalaga.es/emt-mobile/informacionParada.html?codParada=819,,,Europe/Madrid
285,820,Louis Pasteur - Jimenez Fraud,Parada,36.7167661446703,-4.47547765455993,,http://www.emtmalaga.es/emt-mobile/informacionParada.html?codParada=820,,,Europe/Madrid
286,821,Martínez Maldonado - Pelayo,Parada,36.7215349094485,-4.43299729093901,,http://www.emtmalaga.es/emt-mobile/informacionParada.html?codParada=821,,,Europe/Madrid
288,823,Hilera - Armengual de la Mota,Parada,36.7179738081949,-4.42842742145431,,http://www.emtmalaga.es/emt-mobile/informacionParada.html?codParada=823,,,Europe/Madrid
3283,824,Pso. Marítimo Pablo Ruiz Picasso - Bellavista,Parada,36.7224637443253,-4.39690788200374,,http://www.emtmalaga.es/emt-mobile/informacionParada.html?codParada=824,,,Europe/Madrid
289,831,Eolo - El Romeral,Parada,36.7204653261923,-4.474750497297,,http://www.emtmalaga.es/emt-mobile/informacionParada.html?codParada=831,,,Europe/Madrid
290,832,Facultad de Filosofía y Letras,Parada,36.7166523843237,-4.47016074180853,,http://www.emtmalaga.es/emt-mobile/informacionParada.html?codParada=832,,,Europe/Madrid
291,833,Facultad de Derecho,Parada,36.717544667245,-4.46989036424357,,http://www.emtmalaga.es/emt-mobile/informacionParada.html?codParada=833,,,Europe/Madrid
292,836,Navarro Ledesma - Ciudad Sta. Inés,Parada,36.7245928611617,-4.47005944548427,,http://www.emtmalaga.es/emt-mobile/informacionParada.html?codParada=836,,,Europe/Madrid
293,837,Navarro Ledesma - Colonia Sta. Inés,Parada,36.7250126795858,-4.46692129783665,,http://www.emtmalaga.es/emt-mobile/informacionParada.html?codParada=837,,,Europe/Madrid
294,838,Navarro Ledesma - Quinta Alegre,Parada,36.7252467101372,-4.46515864833625,,http://www.emtmalaga.es/emt-mobile/informacionParada.html?codParada=838,,,Europe/Madrid
295,839,Avda. Carlos Haya - Teatinos,Parada,36.7256118888901,-4.45954976978287,,http://www.emtmalaga.es/emt-mobile/informacionParada.html?codParada=839,,,Europe/Madrid
296,840,Avda. Carlos Haya - Alfonso X,Parada,36.7247450018181,-4.4573116875582,,http://www.emtmalaga.es/emt-mobile/informacionParada.html?codParada=840,,,Europe/Madrid
297,841,Avda. Carlos Haya - Ortega Prados,Parada,36.7235218497479,-4.45427107936343,,http://www.emtmalaga.es/emt-mobile/informacionParada.html?codParada=841,,,Europe/Madrid
298,842,Avda. Carlos Haya - Parque Florida,Parada,36.7229941913468,-4.45267437439732,,http://www.emtmalaga.es/emt-mobile/informacionParada.html?codParada=842,,,Europe/Madrid
299,843,Avda. Carlos Haya - Hospital,Parada,36.7224672763233,-4.44936092209547,,http://www.emtmalaga.es/emt-mobile/informacionParada.html?codParada=843,,,Europe/Madrid
300,844,Avda. Carlos Haya - Los Remedios,Parada,36.7220625187652,-4.44708698324387,,http://www.emtmalaga.es/emt-mobile/informacionParada.html?codParada=844,,,Europe/Madrid
301,845,Avda. Carlos Haya - Parque del Norte,Parada,36.7214821167444,-4.44395213005581,,http://www.emtmalaga.es/emt-mobile/informacionParada.html?codParada=845,,,Europe/Madrid
302,846,Martínez Maldonado - Arroyo del Cuarto,Parada,36.7213933391765,-4.44086334957606,,http://www.emtmalaga.es/emt-mobile/informacionParada.html?codParada=846,,,Europe/Madrid
303,847,Martínez Maldonado - Las Chapas,Parada,36.7213986592147,-4.43853024601938,,http://www.emtmalaga.es/emt-mobile/informacionParada.html?codParada=847,,,Europe/Madrid
304,848,Martínez Maldonado - Eugenio Gross,Parada,36.721406194465,-4.43670434836798,,http://www.emtmalaga.es/emt-mobile/informacionParada.html?codParada=848,,,Europe/Madrid
305,850,Facultad de Ciencias,Parada,36.7161934363441,-4.47358344118569,,http://www.emtmalaga.es/emt-mobile/informacionParada.html?codParada=850,,,Europe/Madrid
306,851,Navarro Ledesma - Carril del Capitán,Parada,36.72545188825,-4.46262903865594,,http://www.emtmalaga.es/emt-mobile/informacionParada.html?codParada=851,,,Europe/Madrid
307,853,Avda. Plutarco - Antígona,Parada,36.7213821054244,-4.47672826134325,,http://www.emtmalaga.es/emt-mobile/informacionParada.html?codParada=853,,,Europe/Madrid
308,854,Avda. Plutarco - Parménides,Parada,36.7216519689996,-4.47883388022393,,http://www.emtmalaga.es/emt-mobile/informacionParada.html?codParada=854,,,Europe/Madrid
310,861,Carril del Ciprés - Carlos Haya,Parada,36.7227935021161,-4.4482185004774,,http://www.emtmalaga.es/emt-mobile/informacionParada.html?codParada=861,,,Europe/Madrid
311,862,Carril del Ciprés - Los Cipreses,Parada,36.7241935231709,-4.44819189991599,,http://www.emtmalaga.es/emt-mobile/informacionParada.html?codParada=862,,,Europe/Madrid
312,863,Carril del Cipres - Bda. San Martín,Parada,36.7260388473922,-4.44888716307401,,http://www.emtmalaga.es/emt-mobile/informacionParada.html?codParada=863,,,Europe/Madrid
313,864,Padre Martín,Parada,36.7277611002863,-4.44954230759872,,http://www.emtmalaga.es/emt-mobile/informacionParada.html?codParada=864,,,Europe/Madrid
315,882,Padre Martín,Parada,36.7277390447815,-4.44965093713896,,http://www.emtmalaga.es/emt-mobile/informacionParada.html?codParada=882,,,Europe/Madrid
316,883,Núñez Vela - Bda. San Martín,Parada,36.7263141876391,-4.4498664720745,,http://www.emtmalaga.es/emt-mobile/informacionParada.html?codParada=883,,,Europe/Madrid
317,884,Núñez Vela - Oscar Wilde,Parada,36.725622190793,-4.45137423341803,,http://www.emtmalaga.es/emt-mobile/informacionParada.html?codParada=884,,,Europe/Madrid
318,885,Nuñez Vela - Av. Carlos Haya,Parada,36.7232680058437,-4.4514594837999,,http://www.emtmalaga.es/emt-mobile/informacionParada.html?codParada=885,,,Europe/Madrid
319,886,Granja Suarez - Padre Martin,Parada,36.7291470173915,-4.45060130055712,,http://www.emtmalaga.es/emt-mobile/informacionParada.html?codParada=886,,,Europe/Madrid
320,887,Granja Suarez - Padre Martin,Parada,36.729576860869,-4.45053537740637,,http://www.emtmalaga.es/emt-mobile/informacionParada.html?codParada=887,,,Europe/Madrid
1459,888,Alameda Principal - Norte,Parada,36.7172242159415,-4.42439107015171,,http://www.emtmalaga.es/emt-mobile/informacionParada.html?codParada=888,,,Europe/Madrid
322,889,Alameda Principal - Sur,Parada,36.7169794246969,-4.42468221895171,,http://www.emtmalaga.es/emt-mobile/informacionParada.html?codParada=889,,,Europe/Madrid
3284,890,Pso. Marítimo Pablo Ruiz Picasso- Bellavista,Parada,36.7225017370445,-4.39623125075031,,http://www.emtmalaga.es/emt-mobile/informacionParada.html?codParada=890,,,Europe/Madrid
325,906,Carril Gamarra - La Rosa,Parada,36.7230875113505,-4.44193033099773,,http://www.emtmalaga.es/emt-mobile/informacionParada.html?codParada=906,,,Europe/Madrid
326,907,Magistrado Salvador Barberá,Parada,36.7240535261171,-4.44358916573381,,http://www.emtmalaga.es/emt-mobile/informacionParada.html?codParada=907,,,Europe/Madrid
328,921,Avda. de la Rosaleda - La Goleta,Parada,36.7258481709842,-4.42546722461666,,http://www.emtmalaga.es/emt-mobile/informacionParada.html?codParada=921,,,Europe/Madrid
329,922,Ingeniero de la Torre Acosta,Parada,36.7200961761283,-4.43848101140405,,http://www.emtmalaga.es/emt-mobile/informacionParada.html?codParada=922,,,Europe/Madrid
330,923,Magistrado Salvador Barberá - Centro de Salud,Parada,36.7258652641,-4.44428079623488,,http://www.emtmalaga.es/emt-mobile/informacionParada.html?codParada=923,,,Europe/Madrid
332,925,Doctor Escassi - Las Chapas,Parada,36.7220837191241,-4.43983596259738,,http://www.emtmalaga.es/emt-mobile/informacionParada.html?codParada=925,,,Europe/Madrid
333,926,Dr. Escassi - J.M. Freuillier,Parada,36.7238342131878,-4.43943690262479,,http://www.emtmalaga.es/emt-mobile/informacionParada.html?codParada=926,,,Europe/Madrid
334,951,Jose Iturbi - Ciudad Nueva Málaga,Parada,36.7260160790205,-4.44385876586113,,http://www.emtmalaga.es/emt-mobile/informacionParada.html?codParada=951,,,Europe/Madrid
335,952,Sondalezas - Maestro Pablo Luna,Parada,36.7252562735103,-4.44239554494526,,http://www.emtmalaga.es/emt-mobile/informacionParada.html?codParada=952,,,Europe/Madrid
336,953,Sondalezas,Parada,36.7242388099223,-4.44175477137248,,http://www.emtmalaga.es/emt-mobile/informacionParada.html?codParada=953,,,Europe/Madrid
337,957,Calzada de la Trinidad,Parada,36.724911768515,-4.43180644043393,,http://www.emtmalaga.es/emt-mobile/informacionParada.html?codParada=957,,,Europe/Madrid
338,959,Avda. Dr. Gálvez Ginachero,Parada,36.7267456686078,-4.42742949627462,,http://www.emtmalaga.es/emt-mobile/informacionParada.html?codParada=959,,,Europe/Madrid
341,963,Velarde,Parada,36.7262933220761,-4.43108037387852,,http://www.emtmalaga.es/emt-mobile/informacionParada.html?codParada=963,,,Europe/Madrid
342,964,Albacete - Rotonda de Suarez,Parada,36.7288225332718,-4.44385267627271,,http://www.emtmalaga.es/emt-mobile/informacionParada.html?codParada=964,,,Europe/Madrid
343,965,Dr. Escassi - Dr. Lazárraga,Parada,36.7234833810646,-4.43965052026667,,http://www.emtmalaga.es/emt-mobile/informacionParada.html?codParada=965,,,Europe/Madrid
344,966,Dr. Escassi - Las Chapas,Parada,36.7221640320693,-4.43995235686401,,http://www.emtmalaga.es/emt-mobile/informacionParada.html?codParada=966,,,Europe/Madrid
345,967,Ingeniero de la Torre Acosta,Parada,36.7198185871848,-4.43869665495263,,http://www.emtmalaga.es/emt-mobile/informacionParada.html?codParada=967,,,Europe/Madrid
347,1002,Avda . de Velázquez - Puerta Blanca,Parada,36.6922853318834,-4.45552371141748,,http://www.emtmalaga.es/emt-mobile/informacionParada.html?codParada=1002,,,Europe/Madrid
348,1003,Avda. de Velázquez - Azucarera,Parada,36.6826821719037,-4.4677842507271,,http://www.emtmalaga.es/emt-mobile/informacionParada.html?codParada=1003,,,Europe/Madrid
349,1005,Avda. de Velázquez - Villa Rosa,Parada,36.6741289500974,-4.4769543978487,,http://www.emtmalaga.es/emt-mobile/informacionParada.html?codParada=1005,,,Europe/Madrid
352,1008,San Julián - Plaza,Parada,36.667235519263,-4.47504461359304,,http://www.emtmalaga.es/emt-mobile/informacionParada.html?codParada=1008,,,Europe/Madrid
353,1009,Camino Loma de San Julián,Parada,36.6681802996681,-4.47181703208204,,http://www.emtmalaga.es/emt-mobile/informacionParada.html?codParada=1009,,,Europe/Madrid
354,1011,Dª Clarines - Guadalmar,Parada,36.6657277992097,-4.46679221024795,,http://www.emtmalaga.es/emt-mobile/informacionParada.html?codParada=1011,,,Europe/Madrid
355,1012,Hespérides - Guadalmar,Parada,36.6643906923254,-4.46389612176742,,http://www.emtmalaga.es/emt-mobile/informacionParada.html?codParada=1012,,,Europe/Madrid
356,1013,M. Curros Enríquez - Ctra. de Guadalmar,Parada,36.6685460263963,-4.46422136484664,,http://www.emtmalaga.es/emt-mobile/informacionParada.html?codParada=1013,,,Europe/Madrid
357,1014,M. Curros Enríquez - C/ Wilkinson,Parada,36.6676414132239,-4.46158117357878,,http://www.emtmalaga.es/emt-mobile/informacionParada.html?codParada=1014,,,Europe/Madrid
358,1015,Castellón de la Plana - Residencia,Parada,36.666309886182,-4.45816250450659,,http://www.emtmalaga.es/emt-mobile/informacionParada.html?codParada=1015,,,Europe/Madrid
359,1016,Rogelio Oliva - Hotel Guadalmar,Parada,36.6639996177992,-4.46062284273261,,http://www.emtmalaga.es/emt-mobile/informacionParada.html?codParada=1016,,,Europe/Madrid
360,1017,Rogelio Oliva - C/ Wilkinson,Parada,36.6655175895847,-4.46336141060233,,http://www.emtmalaga.es/emt-mobile/informacionParada.html?codParada=1017,,,Europe/Madrid
361,1018,Rogelio Oliva - Crta. Campo de Golf,Parada,36.6667849847437,-4.46610085867238,,http://www.emtmalaga.es/emt-mobile/informacionParada.html?codParada=1018,,,Europe/Madrid
362,1019,Ctra. Campo de Golf - Vega de Oro,Parada,36.6576117159257,-4.47419473566329,,http://www.emtmalaga.es/emt-mobile/informacionParada.html?codParada=1019,,,Europe/Madrid
363,1020,Ctra. Campo de Golf - Parador de Turismo,Parada,36.653368610679,-4.47782630320467,,http://www.emtmalaga.es/emt-mobile/informacionParada.html?codParada=1020,,,Europe/Madrid
364,1022,Ctra. de Coín - Los Paseros,Parada,36.658534767375,-4.48955213496458,,http://www.emtmalaga.es/emt-mobile/informacionParada.html?codParada=1022,,,Europe/Madrid
365,1023,Ctra. de Coín - Centro Comercial,Parada,36.6596445014564,-4.49339432504454,,http://www.emtmalaga.es/emt-mobile/informacionParada.html?codParada=1023,,,Europe/Madrid
366,1024,Ctra. de Coín - P. I. El Alamo,Parada,36.6606912466102,-4.49894750182047,,http://www.emtmalaga.es/emt-mobile/informacionParada.html?codParada=1024,,,Europe/Madrid
367,1025,Ctra. de Coín - Heliomar,Parada,36.6614189084247,-4.50277137491985,,http://www.emtmalaga.es/emt-mobile/informacionParada.html?codParada=1025,,,Europe/Madrid
368,1026,Calle Torremolinos - Heliomar,Parada,36.6628202542252,-4.5054635245307,,http://www.emtmalaga.es/emt-mobile/informacionParada.html?codParada=1026,,,Europe/Madrid
369,1027,Torremolinos - Avda. San Javier,Parada,36.6658451751755,-4.50385575107002,,http://www.emtmalaga.es/emt-mobile/informacionParada.html?codParada=1027,,,Europe/Madrid
370,1028,Teresa Blasco - Mercado,Parada,36.6679122481736,-4.50352375994036,,http://www.emtmalaga.es/emt-mobile/informacionParada.html?codParada=1028,,,Europe/Madrid
371,1029,Camino del Retiro - La Tosca,Parada,36.6691920332968,-4.50597318474481,,http://www.emtmalaga.es/emt-mobile/informacionParada.html?codParada=1029,,,Europe/Madrid
372,1030,Camino del Retiro - Cementerio,Parada,36.6691828549634,-4.50908104225873,,http://www.emtmalaga.es/emt-mobile/informacionParada.html?codParada=1030,,,Europe/Madrid
373,1031,Eduardo Palanca - Los Jazmines,Parada,36.6692091719632,-4.51261555206045,,http://www.emtmalaga.es/emt-mobile/informacionParada.html?codParada=1031,,,Europe/Madrid
374,1032,Caliza - C/ Jaspe,Parada,36.6699332991863,-4.512896217289,,http://www.emtmalaga.es/emt-mobile/informacionParada.html?codParada=1032,,,Europe/Madrid
375,1033,Caliza - Las Pedrizas,Parada,36.6709711647374,-4.51108824190774,,http://www.emtmalaga.es/emt-mobile/informacionParada.html?codParada=1033,,,Europe/Madrid
376,1034,La Carolina - La Noria,Parada,36.6723448767542,-4.5089387321388,,http://www.emtmalaga.es/emt-mobile/informacionParada.html?codParada=1034,,,Europe/Madrid
377,1035,Plaza de Lola Flores,Parada,36.6757090390508,-4.51007104485198,,http://www.emtmalaga.es/emt-mobile/informacionParada.html?codParada=1035,,,Europe/Madrid
378,1036,Ctra. Campo de Golf - Arraijanal,Parada,36.6592048834266,-4.4727967501633,,http://www.emtmalaga.es/emt-mobile/informacionParada.html?codParada=1036,,,Europe/Madrid
379,1037,Camino Loma de San Julian - Centro Comercial,Parada,36.6688600309073,-4.46925759318027,,http://www.emtmalaga.es/emt-mobile/informacionParada.html?codParada=1037,,,Europe/Madrid
381,1039,Avda. de Velazquez - Base Aerea,Parada,36.6615916444239,-4.48474070441015,,http://www.emtmalaga.es/emt-mobile/informacionParada.html?codParada=1039,,,Europe/Madrid
382,1040,Maestro Vert - Centro de Salud,Parada,36.6648241207175,-4.49901299786701,,http://www.emtmalaga.es/emt-mobile/informacionParada.html?codParada=1040,,,Europe/Madrid
383,1041,Maestro Vert,Parada,36.6658017901187,-4.50181529982664,,http://www.emtmalaga.es/emt-mobile/informacionParada.html?codParada=1041,,,Europe/Madrid
386,1044,Julio Balbas,Parada,36.6623031442525,-4.49884326060183,,http://www.emtmalaga.es/emt-mobile/informacionParada.html?codParada=1044,,,Europe/Madrid
387,1045,Avda. de Velazquez - Aeropuerto,Parada,36.6707294788911,-4.47896510419058,,http://www.emtmalaga.es/emt-mobile/informacionParada.html?codParada=1045,,,Europe/Madrid
389,1051,Moby Dick - U. Guadalmar,Parada,36.6632988247876,-4.45967612220546,,http://www.emtmalaga.es/emt-mobile/informacionParada.html?codParada=1051,,,Europe/Madrid
390,1052,Moby Dick - Residencia,Parada,36.666062819943,-4.45720591399266,,http://www.emtmalaga.es/emt-mobile/informacionParada.html?codParada=1052,,,Europe/Madrid
391,1053,M. Curros Enríquez,Parada,36.6676920569986,-4.461323155117,,http://www.emtmalaga.es/emt-mobile/informacionParada.html?codParada=1053,,,Europe/Madrid
392,1054,M. Curros Enríquez - Ctra. Guadalmar,Parada,36.6683721455093,-4.46335313329854,,http://www.emtmalaga.es/emt-mobile/informacionParada.html?codParada=1054,,,Europe/Madrid
393,1055,Camino Loma de San Julián,Parada,36.6682732054368,-4.47209795126701,,http://www.emtmalaga.es/emt-mobile/informacionParada.html?codParada=1055,,,Europe/Madrid
394,1056,San Julián - Plaza,Parada,36.667489590692,-4.47465665280982,,http://www.emtmalaga.es/emt-mobile/informacionParada.html?codParada=1056,,,Europe/Madrid
396,1058,Avda. de Velázquez - Villa Rosa,Parada,36.6742801979803,-4.4763539696209,,http://www.emtmalaga.es/emt-mobile/informacionParada.html?codParada=1058,,,Europe/Madrid
397,1059,Avda. de Velazquez - Canal Sur,Parada,36.6764527986645,-4.47497023233201,,http://www.emtmalaga.es/emt-mobile/informacionParada.html?codParada=1059,,,Europe/Madrid
398,1061,Avda. de Velázquez - La Concha,Parada,36.682810144614,-4.46713264590135,,http://www.emtmalaga.es/emt-mobile/informacionParada.html?codParada=1061,,,Europe/Madrid
399,1063,Avda. de Velázquez - Puerta Blanca,Parada,36.6917762316626,-4.45573710347989,,http://www.emtmalaga.es/emt-mobile/informacionParada.html?codParada=1063,,,Europe/Madrid
400,1064,Camino de la Huertecilla - La Noria,Parada,36.6743402249355,-4.5080042309784,,http://www.emtmalaga.es/emt-mobile/informacionParada.html?codParada=1064,,,Europe/Madrid
401,1065,Camino de la Huertecilla - Paredones,Parada,36.6718430904911,-4.50533987702059,,http://www.emtmalaga.es/emt-mobile/informacionParada.html?codParada=1065,,,Europe/Madrid
402,1066,Plaza de la Inmaculada,Parada,36.6699216250718,-4.50314431536376,,http://www.emtmalaga.es/emt-mobile/informacionParada.html?codParada=1066,,,Europe/Madrid
403,1067,Teresa Blasco - Mercado,Parada,36.6674422322311,-4.50359205505194,,http://www.emtmalaga.es/emt-mobile/informacionParada.html?codParada=1067,,,Europe/Madrid
404,1068,Torremolinos - Avda. San Javier,Parada,36.6653777054331,-4.50421341791153,,http://www.emtmalaga.es/emt-mobile/informacionParada.html?codParada=1068,,,Europe/Madrid
405,1069,Torremolinos - Finca La Hacienda,Parada,36.6639011762294,-4.50500759908597,,http://www.emtmalaga.es/emt-mobile/informacionParada.html?codParada=1069,,,Europe/Madrid
406,1070,Ctra. de Coín - Camino del Pilar,Parada,36.66155575659,-4.5049970623844,,http://www.emtmalaga.es/emt-mobile/informacionParada.html?codParada=1070,,,Europe/Madrid
407,1071,Ctra. de Coín - Lourdes,Parada,36.6603494218928,-4.49882603669495,,http://www.emtmalaga.es/emt-mobile/informacionParada.html?codParada=1071,,,Europe/Madrid
408,1072,Ctra. de Coín - La Casita de Madera,Parada,36.6592547131174,-4.49314651440597,,http://www.emtmalaga.es/emt-mobile/informacionParada.html?codParada=1072,,,Europe/Madrid
409,1073,Ctra. de Coín - Los Paseros,Parada,36.6579722927799,-4.48909636898287,,http://www.emtmalaga.es/emt-mobile/informacionParada.html?codParada=1073,,,Europe/Madrid
410,1074,Avda. Moserrat Caballe - Parque de Ocio,Parada,36.654222580794,-4.48028125819731,,http://www.emtmalaga.es/emt-mobile/informacionParada.html?codParada=1074,,,Europe/Madrid
411,1075,Ctra. Campo de Golf - Parador de Turismo,Parada,36.6537914938065,-4.47740451027809,,http://www.emtmalaga.es/emt-mobile/informacionParada.html?codParada=1075,,,Europe/Madrid
412,1076,Ctra. Campo de Golf - Vega de Oro,Parada,36.6577586420289,-4.47390372728853,,http://www.emtmalaga.es/emt-mobile/informacionParada.html?codParada=1076,,,Europe/Madrid
413,1077,Ctra. Campo de Golf - Arraijanal,Parada,36.6590084661058,-4.47189274961754,,http://www.emtmalaga.es/emt-mobile/informacionParada.html?codParada=1077,,,Europe/Madrid
414,1078,Camino Loma San Julián - Centro Comercial,Parada,36.6688087434865,-4.47017817691237,,http://www.emtmalaga.es/emt-mobile/informacionParada.html?codParada=1078,,,Europe/Madrid
416,1080,Avda Monserrat Caballe - Parque de Ocio,Parada,36.6538897983025,-4.4800485957227,,http://www.emtmalaga.es/emt-mobile/informacionParada.html?codParada=1080,,,Europe/Madrid
417,1081,Avda. de Velazquez - Base Aerea,Parada,36.6606204571131,-4.48482549641974,,http://www.emtmalaga.es/emt-mobile/informacionParada.html?codParada=1081,,,Europe/Madrid
419,1083,Monsalvez,Parada,36.6672785107218,-4.50026076508142,,http://www.emtmalaga.es/emt-mobile/informacionParada.html?codParada=1083,,,Europe/Madrid
420,1084,Enrique Van Dulken - Centro de Salud,Parada,36.6650086316094,-4.49880299496249,,http://www.emtmalaga.es/emt-mobile/informacionParada.html?codParada=1084,,,Europe/Madrid
421,1085,Periodista J.A. Rando,Parada,36.6621317331432,-4.49946258735584,,http://www.emtmalaga.es/emt-mobile/informacionParada.html?codParada=1085,,,Europe/Madrid
422,1086,Avda. de Velazquez - Aeropuerto,Parada,36.6691456476484,-4.47952721684574,,http://www.emtmalaga.es/emt-mobile/informacionParada.html?codParada=1086,,,Europe/Madrid
424,1103,Paseo de Reding - Plaza de Toros,Parada,36.7208934346008,-4.4104248298332,,http://www.emtmalaga.es/emt-mobile/informacionParada.html?codParada=1103,,,Europe/Madrid
425,1104,Paseo de Reding - Hotel Miramar,Parada,36.7208822752054,-4.40767411978391,,http://www.emtmalaga.es/emt-mobile/informacionParada.html?codParada=1104,,,Europe/Madrid
426,1105,Paseo de Sancha - La Caleta,Parada,36.721502758314,-4.4029688564322,,http://www.emtmalaga.es/emt-mobile/informacionParada.html?codParada=1105,,,Europe/Madrid
427,1106,Paseo de Sancha - Monte Sancha,Parada,36.7219794616543,-4.40084668136088,,http://www.emtmalaga.es/emt-mobile/informacionParada.html?codParada=1106,,,Europe/Madrid
428,1107,Avda. Pintor J. Sorolla - El Limonar,Parada,36.7229487954234,-4.39791637490775,,http://www.emtmalaga.es/emt-mobile/informacionParada.html?codParada=1107,,,Europe/Madrid
429,1108,Avda. Pintor J. Sorolla - Miramar,Parada,36.7234022255463,-4.39631666639127,,http://www.emtmalaga.es/emt-mobile/informacionParada.html?codParada=1108,,,Europe/Madrid
430,1109,Avda. Pintor J. Sorolla - Bellavista,Parada,36.7235001022214,-4.3941529473487,,http://www.emtmalaga.es/emt-mobile/informacionParada.html?codParada=1109,,,Europe/Madrid
431,1110,Avda. Pintor J. Sorolla - El Morlaco,Parada,36.7225394816093,-4.38885965673194,,http://www.emtmalaga.es/emt-mobile/informacionParada.html?codParada=1110,,,Europe/Madrid
432,1111,Bolivia - Baños del Carmen,Parada,36.7214371706882,-4.38234498711918,,http://www.emtmalaga.es/emt-mobile/informacionParada.html?codParada=1111,,,Europe/Madrid
433,1112,Bolivia - Callejón de la marina,Parada,36.7214411928735,-4.37864899583043,,http://www.emtmalaga.es/emt-mobile/informacionParada.html?codParada=1112,,,Europe/Madrid
434,1113,Bolivia - Pedregalejo,Parada,36.7214969528378,-4.37523043421788,,http://www.emtmalaga.es/emt-mobile/informacionParada.html?codParada=1113,,,Europe/Madrid
435,1114,Bolivia Las Acacias,Parada,36.7207674496441,-4.370848862682,,http://www.emtmalaga.es/emt-mobile/informacionParada.html?codParada=1114,,,Europe/Madrid
436,1115,Salvador Allende - Arroyo Jaboneros,Parada,36.7198081347624,-4.36535487652888,,http://www.emtmalaga.es/emt-mobile/informacionParada.html?codParada=1115,,,Europe/Madrid
437,1116,Salvador Allende - Estación,Parada,36.7195451771252,-4.36182456152463,,http://www.emtmalaga.es/emt-mobile/informacionParada.html?codParada=1116,,,Europe/Madrid
438,1117,Avda. Salvador Allende - Santarén,Parada,36.7190397036573,-4.35754554760072,,http://www.emtmalaga.es/emt-mobile/informacionParada.html?codParada=1117,,,Europe/Madrid
439,1118,Avda. Salvador Allende - Cementerio,Parada,36.718505442577,-4.35509376935294,,http://www.emtmalaga.es/emt-mobile/informacionParada.html?codParada=1118,,,Europe/Madrid
440,1119,Dr. Gutierrez Mata - Playa Virginia,Parada,36.7186167569159,-4.3521654258338,,http://www.emtmalaga.es/emt-mobile/informacionParada.html?codParada=1119,,,Europe/Madrid
441,1120,Carretera de Olías,Parada,36.7204746340313,-4.35312895648545,,http://www.emtmalaga.es/emt-mobile/informacionParada.html?codParada=1120,,,Europe/Madrid
442,1121,Carretera de Olías - Colegio,Parada,36.720913455642,-4.35140227054132,,http://www.emtmalaga.es/emt-mobile/informacionParada.html?codParada=1121,,,Europe/Madrid
443,1122,Paseo del Parque - Plaza de la Marina,Parada,36.7184805637858,-4.41922524358503,,http://www.emtmalaga.es/emt-mobile/informacionParada.html?codParada=1122,,,Europe/Madrid
444,1123,Paseo del Parque - Ayuntamiento,Parada,36.7196895916123,-4.41491175515231,,http://www.emtmalaga.es/emt-mobile/informacionParada.html?codParada=1123,,,Europe/Madrid
445,1124,Avda. Juan Sebastián Elcano - Pez Plata,Parada,36.7219438435353,-4.37941313811909,,http://www.emtmalaga.es/emt-mobile/informacionParada.html?codParada=1124,,,Europe/Madrid
446,1125,Avda. Juan Sebastián Elcano - Pedregalejo,Parada,36.7222433730968,-4.37710301283844,,http://www.emtmalaga.es/emt-mobile/informacionParada.html?codParada=1125,,,Europe/Madrid
448,1127,Avda. Juan Sebastián Elcano - Los Galanes,Parada,36.7223471385545,-4.37360128797069,,http://www.emtmalaga.es/emt-mobile/informacionParada.html?codParada=1127,,,Europe/Madrid
449,1128,Avda. Juan Sebatián Elcano - Arroyo Jaboneros,Parada,36.7223121732148,-4.3669789423055,,http://www.emtmalaga.es/emt-mobile/informacionParada.html?codParada=1128,,,Europe/Madrid
450,1129,Av. J. Sebastián Elcano - Pintor Enrique Florido,Parada,36.7219978199326,-4.36496094355598,,http://www.emtmalaga.es/emt-mobile/informacionParada.html?codParada=1129,,,Europe/Madrid
451,1130,Avda. Juan Sebastián Elcano - Echeverria,Parada,36.7211834322892,-4.3621851698564,,http://www.emtmalaga.es/emt-mobile/informacionParada.html?codParada=1130,,,Europe/Madrid
452,1131,Avda. Juan Sebastián Elcano - Iglesia,Parada,36.7210670689577,-4.36032293695983,,http://www.emtmalaga.es/emt-mobile/informacionParada.html?codParada=1131,,,Europe/Madrid
453,1132,Carretera Almería - Padre Coloma,Parada,36.7205215109719,-4.35607473777962,,http://www.emtmalaga.es/emt-mobile/informacionParada.html?codParada=1132,,,Europe/Madrid
454,1133,Carretera de Almería - Miramar del Palo,Parada,36.7201177018452,-4.35294893919153,,http://www.emtmalaga.es/emt-mobile/informacionParada.html?codParada=1133,,,Europe/Madrid
455,1134,Leopardi - Centro de Salud,Parada,36.7181829740372,-4.3529082584744,,http://www.emtmalaga.es/emt-mobile/informacionParada.html?codParada=1134,,,Europe/Madrid
456,1135,Avda. Juan Sebastian Elcano - Las Acacias,Parada,36.7223568144056,-4.36973277256079,,http://www.emtmalaga.es/emt-mobile/informacionParada.html?codParada=1135,,,Europe/Madrid
3299,1136,Dr. Gutiérrez Mata - Almería,Parada,36.7192863229676,-4.35179910543526,,http://www.emtmalaga.es/emt-mobile/informacionParada.html?codParada=1136,,,Europe/Madrid
457,1151,Carretera de Olías - El Palo,Parada,36.7217973354135,-4.34849064543209,,http://www.emtmalaga.es/emt-mobile/informacionParada.html?codParada=1151,,,Europe/Madrid
458,1152,Carretera de Olías - Pelusa,Parada,36.7210091121074,-4.35146987742704,,http://www.emtmalaga.es/emt-mobile/informacionParada.html?codParada=1152,,,Europe/Madrid
459,1153,Carretera Almería - Chanquete,Parada,36.7204093581031,-4.35458657495867,,http://www.emtmalaga.es/emt-mobile/informacionParada.html?codParada=1153,,,Europe/Madrid
460,1154,Carretera de Almería - Edif. Bahía,Parada,36.7207433412292,-4.35655787272458,,http://www.emtmalaga.es/emt-mobile/informacionParada.html?codParada=1154,,,Europe/Madrid
461,1155,Avda. Juan Sebastián Elcano - Iglesia,Parada,36.7211689897604,-4.3604366584373,,http://www.emtmalaga.es/emt-mobile/informacionParada.html?codParada=1155,,,Europe/Madrid
462,1156,Avda. Juan Sebastián Elcano - Echeverria,Parada,36.7217000159319,-4.36339486511885,,http://www.emtmalaga.es/emt-mobile/informacionParada.html?codParada=1156,,,Europe/Madrid
463,1157,Avda. Juan Sebastián Elcano - Arroyo Jaboneros,Parada,36.722472700633,-4.36767920549164,,http://www.emtmalaga.es/emt-mobile/informacionParada.html?codParada=1157,,,Europe/Madrid
464,1158,Avda. Juan Sebastián Elcano - Las Acacias,Parada,36.7224692552302,-4.36947909952274,,http://www.emtmalaga.es/emt-mobile/informacionParada.html?codParada=1158,,,Europe/Madrid
465,1159,Avda. Juan Sebastián Elcano - Los Galanes,Parada,36.7224690593361,-4.37238198186567,,http://www.emtmalaga.es/emt-mobile/informacionParada.html?codParada=1159,,,Europe/Madrid
466,1160,Avda. Juan Sebastián Elcano - Pedregalejo,Parada,36.7223741666245,-4.37681796644638,,http://www.emtmalaga.es/emt-mobile/informacionParada.html?codParada=1160,,,Europe/Madrid
467,1161,Avda. Juan Sebastián Elcano - Vicente Espinel,Parada,36.722124766776,-4.37894478213966,,http://www.emtmalaga.es/emt-mobile/informacionParada.html?codParada=1161,,,Europe/Madrid
468,1162,Avda. Juan Sebastián Elcano - Cerrado Calderón,Parada,36.7220088832652,-4.38247437237412,,http://www.emtmalaga.es/emt-mobile/informacionParada.html?codParada=1162,,,Europe/Madrid
469,1163,Avda. Pintor J. Sorolla - El Morlaco,Parada,36.7224715443519,-4.38754502001758,,http://www.emtmalaga.es/emt-mobile/informacionParada.html?codParada=1163,,,Europe/Madrid
470,1164,Avda. Pintor J. Sorolla - Bellavista,Parada,36.7235866090041,-4.39411766880173,,http://www.emtmalaga.es/emt-mobile/informacionParada.html?codParada=1164,,,Europe/Madrid
471,1165,Avda. Pintor J. Sorolla - Miramar,Parada,36.7234838230835,-4.3963602792324,,http://www.emtmalaga.es/emt-mobile/informacionParada.html?codParada=1165,,,Europe/Madrid
472,1166,Avda. Pintor J. Sorolla - El Limonar,Parada,36.722882958269,-4.39841341026778,,http://www.emtmalaga.es/emt-mobile/informacionParada.html?codParada=1166,,,Europe/Madrid
473,1167,Paseo de Sancha  - Monte Sancha,Parada,36.7217918334346,-4.4015962054114,,http://www.emtmalaga.es/emt-mobile/informacionParada.html?codParada=1167,,,Europe/Madrid
474,1168,Paseo de Sancha - La Caleta,Parada,36.7216286300886,-4.4037264681515,,http://www.emtmalaga.es/emt-mobile/informacionParada.html?codParada=1168,,,Europe/Madrid
475,1169,Avda. Príes - Cementerio Inglés,Parada,36.721129571225,-4.40708304749745,,http://www.emtmalaga.es/emt-mobile/informacionParada.html?codParada=1169,,,Europe/Madrid
476,1170,Paseo de Reding - Plaza de Toros,Parada,36.721057862969,-4.41066036176702,,http://www.emtmalaga.es/emt-mobile/informacionParada.html?codParada=1170,,,Europe/Madrid
477,1171,Paseo del Parque -  Ayuntamiento,Parada,36.720147611864,-4.41408377619546,,http://www.emtmalaga.es/emt-mobile/informacionParada.html?codParada=1171,,,Europe/Madrid
478,1172,Paseo del Parque,Parada,36.7194174733949,-4.41666298761702,,http://www.emtmalaga.es/emt-mobile/informacionParada.html?codParada=1172,,,Europe/Madrid
479,1173,Paseo del Parque - Plaza Marina,Parada,36.7186768309684,-4.41932165787195,,http://www.emtmalaga.es/emt-mobile/informacionParada.html?codParada=1173,,,Europe/Madrid
482,1177,Alameda Principal - Norte,Parada,36.7176435478701,-4.42286226385621,,http://www.emtmalaga.es/emt-mobile/informacionParada.html?codParada=1177,,,Europe/Madrid
483,1201,Paseo del Parque - Plaza del General Torrijos,Parada,36.7200435215102,-4.41362818130776,,http://www.emtmalaga.es/emt-mobile/informacionParada.html?codParada=1201,,,Europe/Madrid
484,1202,Avda. de Europa - Bda. Dos Hermanas,Parada,36.7024012126283,-4.4466242994697,,http://www.emtmalaga.es/emt-mobile/informacionParada.html?codParada=1202,,,Europe/Madrid
485,1203,Avda. de Europa - Bda. El Torcal,Parada,36.7014902759517,-4.44961498386981,,http://www.emtmalaga.es/emt-mobile/informacionParada.html?codParada=1203,,,Europe/Madrid
486,1204,Avda. Europa - San Andrés 1ª Fase,Parada,36.7004410727546,-4.45186810147263,,http://www.emtmalaga.es/emt-mobile/informacionParada.html?codParada=1204,,,Europe/Madrid
487,1205,Avda. Europa - Vistafranca,Parada,36.6990643057161,-4.45428691601259,,http://www.emtmalaga.es/emt-mobile/informacionParada.html?codParada=1205,,,Europe/Madrid
488,1206,Avda. de Europa - La Luz,Parada,36.6983409013617,-4.45556128092745,,http://www.emtmalaga.es/emt-mobile/informacionParada.html?codParada=1206,,,Europe/Madrid
489,1207,Avda. Europa San Andrés - 2ª Fase,Parada,36.6976456163329,-4.45683122852871,,http://www.emtmalaga.es/emt-mobile/informacionParada.html?codParada=1207,,,Europe/Madrid
490,1209,Avda. de Europa - Camino Viejo de Churriana,Parada,36.6967826671208,-4.45846601062722,,http://www.emtmalaga.es/emt-mobile/informacionParada.html?codParada=1209,,,Europe/Madrid
2360,1211,Av. Europa - I.E.S. Santa Bárbara,Parada,36.6952060558625,-4.46106358293219,,http://www.emtmalaga.es/emt-mobile/informacionParada.html?codParada=1211,,,Europe/Madrid
492,1252,Avda. de Europa - Camino Viejo de Churriana,Parada,36.6966791591811,-4.4581746092076,,http://www.emtmalaga.es/emt-mobile/informacionParada.html?codParada=1252,,,Europe/Madrid
493,1253,Avda. de Europa - San Andrés 2ª Fase,Parada,36.6976735455596,-4.4563086327908,,http://www.emtmalaga.es/emt-mobile/informacionParada.html?codParada=1253,,,Europe/Madrid
494,1254,Avda. Europa - Vistafranca,Parada,36.6988289525368,-4.45424898723171,,http://www.emtmalaga.es/emt-mobile/informacionParada.html?codParada=1254,,,Europe/Madrid
495,1255,Avda. Europa - San Andrés 1ª Fase,Parada,36.7002519899939,-4.45169401081141,,http://www.emtmalaga.es/emt-mobile/informacionParada.html?codParada=1255,,,Europe/Madrid
496,1256,Avda. de Europa - Bda. El Torcal,Parada,36.7015964437624,-4.44873240950747,,http://www.emtmalaga.es/emt-mobile/informacionParada.html?codParada=1256,,,Europe/Madrid
499,1259,La Hoz - Mercado  de Huelin,Parada,36.7025898257025,-4.43831831219003,,http://www.emtmalaga.es/emt-mobile/informacionParada.html?codParada=1259,,,Europe/Madrid
1502,1261,Av. Europa - Santa Bárbara,Parada,36.6956192003342,-4.46016350673109,,http://www.emtmalaga.es/emt-mobile/informacionParada.html?codParada=1261,,,Europe/Madrid
501,1301,Paseo Mtmo. Ciudad de Melilla - Paseo Farola,Parada,36.7153413441857,-4.41310266724021,,http://www.emtmalaga.es/emt-mobile/informacionParada.html?codParada=1301,,,Europe/Madrid
502,1304,Capuchinos,Parada,36.7276138367826,-4.42200489885116,,http://www.emtmalaga.es/emt-mobile/informacionParada.html?codParada=1304,,,Europe/Madrid
503,1305,Peinado,Parada,36.7313517840996,-4.42266670738315,,http://www.emtmalaga.es/emt-mobile/informacionParada.html?codParada=1305,,,Europe/Madrid
505,1352,Cruz del Molinillo,Parada,36.7268544190624,-4.42400120880377,,http://www.emtmalaga.es/emt-mobile/informacionParada.html?codParada=1352,,,Europe/Madrid
506,1354,Eduardo Domínguez Ávila,Parada,36.7301852689765,-4.42148995007885,,http://www.emtmalaga.es/emt-mobile/informacionParada.html?codParada=1354,,,Europe/Madrid
511,1359,Paseo de la Farola - Comandancia de Marina,Parada,36.7178159938761,-4.41243910991049,,http://www.emtmalaga.es/emt-mobile/informacionParada.html?codParada=1359,,,Europe/Madrid
513,1402,Avda. de Andalucía - Rotonda,Parada,36.7170392510655,-4.43044911552787,,http://www.emtmalaga.es/emt-mobile/informacionParada.html?codParada=1402,,,Europe/Madrid
514,1403,Avda. de Andalucía - Jardines Picasso,Parada,36.7172463700807,-4.43335353006887,,http://www.emtmalaga.es/emt-mobile/informacionParada.html?codParada=1403,,,Europe/Madrid
515,1404,Avda. de Andalucía - Puente de las Américas,Parada,36.7171427844773,-4.43804280046299,,http://www.emtmalaga.es/emt-mobile/informacionParada.html?codParada=1404,,,Europe/Madrid
516,1405,Avda. de Andalucía - Centro de Salud,Parada,36.7165055323739,-4.44117299826261,,http://www.emtmalaga.es/emt-mobile/informacionParada.html?codParada=1405,,,Europe/Madrid
517,1406,Virgen de la Estrella - Centro de Salud,Parada,36.7166427239512,-4.44320838327685,,http://www.emtmalaga.es/emt-mobile/informacionParada.html?codParada=1406,,,Europe/Madrid
519,1409,Virgen de la Cabeza,Parada,36.7178249928908,-4.44870475141264,,http://www.emtmalaga.es/emt-mobile/informacionParada.html?codParada=1409,,,Europe/Madrid
520,1410,Cómpeta,Parada,36.7192456224294,-4.45025521143428,,http://www.emtmalaga.es/emt-mobile/informacionParada.html?codParada=1410,,,Europe/Madrid
522,1412,Cómpeta - Plaza de J. Bergamín,Parada,36.7195012920736,-4.45320027691863,,http://www.emtmalaga.es/emt-mobile/informacionParada.html?codParada=1412,,,Europe/Madrid
523,1413,Almogía,Parada,36.7180742847147,-4.45446480942657,,http://www.emtmalaga.es/emt-mobile/informacionParada.html?codParada=1413,,,Europe/Madrid
525,1416,Avda. de la Aurora - Puente de las Américas,Parada,36.7157757917898,-4.43839595061166,,http://www.emtmalaga.es/emt-mobile/informacionParada.html?codParada=1416,,,Europe/Madrid
526,1417,Avda. de la Aurora - Horacio Lengo,Parada,36.7150559117494,-4.44079558445765,,http://www.emtmalaga.es/emt-mobile/informacionParada.html?codParada=1417,,,Europe/Madrid
528,1419,Plaza de Sandro Botticelli,Parada,36.7194832855344,-4.46020929250374,,http://www.emtmalaga.es/emt-mobile/informacionParada.html?codParada=1419,,,Europe/Madrid
530,1421,Paseo de la Farola,Parada,36.7147616031144,-4.41427142874987,,http://www.emtmalaga.es/emt-mobile/informacionParada.html?codParada=1421,,,Europe/Madrid
3281,1422,Av. Jorge L. Borges -Carril Las Morillas,Parada,36.7203314659842,-4.46654213320858,,http://www.emtmalaga.es/emt-mobile/informacionParada.html?codParada=1422,,,Europe/Madrid
4636,1423,Av. J. L. Borges-Sandro Botticelli,Parada,36.7200560061354,-4.46092396977006,,http://www.emtmalaga.es/emt-mobile/informacionParada.html?codParada=1423,,,Europe/Madrid
533,1454,Cómpeta - C. P. Antonio Machado,Parada,36.7190906917906,-4.45125844490444,,http://www.emtmalaga.es/emt-mobile/informacionParada.html?codParada=1454,,,Europe/Madrid
534,1455,Avda. Herrera Oria - Polideportivo,Parada,36.7187725223966,-4.44727250517329,,http://www.emtmalaga.es/emt-mobile/informacionParada.html?codParada=1455,,,Europe/Madrid
536,1457,Virgen de la Esperanza - Mercado,Parada,36.7171896611794,-4.44603462072952,,http://www.emtmalaga.es/emt-mobile/informacionParada.html?codParada=1457,,,Europe/Madrid
537,1460,Avda. de Andalucía - Centro de Salud,Parada,36.7162604562433,-4.44100793242952,,http://www.emtmalaga.es/emt-mobile/informacionParada.html?codParada=1460,,,Europe/Madrid
538,1461,Avda. de Andalucía - Puente de las Américas,Parada,36.7166540155127,-4.43868277714885,,http://www.emtmalaga.es/emt-mobile/informacionParada.html?codParada=1461,,,Europe/Madrid
539,1462,Avda. de Andalucía - Jardines Picasso,Parada,36.7169395859726,-4.4328594673943,,http://www.emtmalaga.es/emt-mobile/informacionParada.html?codParada=1462,,,Europe/Madrid
540,1463,Avda. de Andalucía - Rotonda,Parada,36.7167635927578,-4.43052407711849,,http://www.emtmalaga.es/emt-mobile/informacionParada.html?codParada=1463,,,Europe/Madrid
542,1465,Almogía - C. P.  R. León,Parada,36.7179814589877,-4.45420362995265,,http://www.emtmalaga.es/emt-mobile/informacionParada.html?codParada=1465,,,Europe/Madrid
543,1466,Cómpeta - Plaza de J. Bergamín,Parada,36.719260652268,-4.4535790467545,,http://www.emtmalaga.es/emt-mobile/informacionParada.html?codParada=1466,,,Europe/Madrid
545,1468,Avda. de la Aurora - Horacio Lengo,Parada,36.7149003810606,-4.44071461906248,,http://www.emtmalaga.es/emt-mobile/informacionParada.html?codParada=1468,,,Europe/Madrid
548,1471,Alameda Principal - Sur,Parada,36.7176646437358,-4.4221795120872,,http://www.emtmalaga.es/emt-mobile/informacionParada.html?codParada=1471,,,Europe/Madrid
3282,1472,Jorge Luis Borges - Giordano Bruno,Parada,36.7200438375075,-4.46666484786225,,http://www.emtmalaga.es/emt-mobile/informacionParada.html?codParada=1472,,,Europe/Madrid
550,1502,Camino de la Virreina,Parada,36.740103495654,-4.42619771800377,,http://www.emtmalaga.es/emt-mobile/informacionParada.html?codParada=1502,,,Europe/Madrid
551,1503,Avda. de la Palmilla - Centro de Salud,Parada,36.738304379861,-4.42680654047493,,http://www.emtmalaga.es/emt-mobile/informacionParada.html?codParada=1503,,,Europe/Madrid
552,1504,Avda. de la Palmilla - Instituto Guadalmedina,Parada,36.7367536664329,-4.42735698800702,,http://www.emtmalaga.es/emt-mobile/informacionParada.html?codParada=1504,,,Europe/Madrid
553,1505,Avda. de la Palmilla - Campo de Futbol,Parada,36.7335847015122,-4.42762313792019,,http://www.emtmalaga.es/emt-mobile/informacionParada.html?codParada=1505,,,Europe/Madrid
2342,1506,Avda. Dr. Marañón - Conde de Ferrería,Parada,36.7307130755605,-4.42845949313517,,http://www.emtmalaga.es/emt-mobile/informacionParada.html?codParada=1506,,,Europe/Madrid
557,1512,Avda. Sta. Rosa de Lima,Parada,36.7211953056124,-4.44928040087122,,http://www.emtmalaga.es/emt-mobile/informacionParada.html?codParada=1512,,,Europe/Madrid
558,1513,Avda. Sta. Rosa de Lima - Competa,Parada,36.7196036929177,-4.44943486827867,,http://www.emtmalaga.es/emt-mobile/informacionParada.html?codParada=1513,,,Europe/Madrid
559,1514,Virgen de la Cabeza - J. Viciana,Parada,36.7174788905072,-4.44885282093825,,http://www.emtmalaga.es/emt-mobile/informacionParada.html?codParada=1514,,,Europe/Madrid
560,1515,Avda. Juan XXIII - Barbarela,Parada,36.7121900806801,-4.44664871183522,,http://www.emtmalaga.es/emt-mobile/informacionParada.html?codParada=1515,,,Europe/Madrid
561,1516,Avda. Juan XXIII - Camino de San Rafael,Parada,36.710482954817,-4.44549814391501,,http://www.emtmalaga.es/emt-mobile/informacionParada.html?codParada=1516,,,Europe/Madrid
562,1517,Avda. Juan XXIII - Bodegueros,Parada,36.7082023968363,-4.44401850283603,,http://www.emtmalaga.es/emt-mobile/informacionParada.html?codParada=1517,,,Europe/Madrid
563,1518,Avda. Europa,Parada,36.7036424673966,-4.44202244283999,,http://www.emtmalaga.es/emt-mobile/informacionParada.html?codParada=1518,,,Europe/Madrid
564,1519,Avda. de la Paloma,Parada,36.7020894535986,-4.44525365296401,,http://www.emtmalaga.es/emt-mobile/informacionParada.html?codParada=1519,,,Europe/Madrid
566,1521,Las Delicias,Parada,36.6967284333336,-4.442067909514,,http://www.emtmalaga.es/emt-mobile/informacionParada.html?codParada=1521,,,Europe/Madrid
567,1522,Parque Mediterráneo,Parada,36.6949021676034,-4.44347409774812,,http://www.emtmalaga.es/emt-mobile/informacionParada.html?codParada=1522,,,Europe/Madrid
568,1523,Luis Barahona Soto - Parque del Oeste,Parada,36.6935637779235,-4.4446391444148,,http://www.emtmalaga.es/emt-mobile/informacionParada.html?codParada=1523,,,Europe/Madrid
569,1524,Santa Paula,Parada,36.6912248669188,-4.44668510782176,,http://www.emtmalaga.es/emt-mobile/informacionParada.html?codParada=1524,,,Europe/Madrid
570,1525,Camino de la Térmica - Selene,Parada,36.6895358926764,-4.44771198154742,,http://www.emtmalaga.es/emt-mobile/informacionParada.html?codParada=1525,,,Europe/Madrid
571,1526,Avda. de la Paloma - Bda. Girón,Parada,36.7005397038601,-4.44182922237666,,http://www.emtmalaga.es/emt-mobile/informacionParada.html?codParada=1526,,,Europe/Madrid
572,1527,Plaza Herbert Von Karajan,Parada,36.7425413343355,-4.42665139556588,,http://www.emtmalaga.es/emt-mobile/informacionParada.html?codParada=1527,,,Europe/Madrid
575,1530,Avda. Sor Teresa Prat - Tabacalera,Parada,36.6993358061374,-4.44024601126517,,http://www.emtmalaga.es/emt-mobile/informacionParada.html?codParada=1530,,,Europe/Madrid
6219,1533,Camino de Suárez - Blas de Lezo,Parada,36.7271935703357,-4.43593248727105,,http://www.emtmalaga.es/emt-mobile/informacionParada.html?codParada=1533,,,Europe/Madrid
578,1551,Camino de la Térmica - Las Pirámides,Parada,36.6883739063483,-4.44789064099496,,http://www.emtmalaga.es/emt-mobile/informacionParada.html?codParada=1551,,,Europe/Madrid
579,1552,Camino de la Térmica - Selene,Parada,36.6895240453,-4.44752170909091,,http://www.emtmalaga.es/emt-mobile/informacionParada.html?codParada=1552,,,Europe/Madrid
580,1553,Luis Barahona Soto - Santa Paula,Parada,36.6916392484537,-4.44611197489689,,http://www.emtmalaga.es/emt-mobile/informacionParada.html?codParada=1553,,,Europe/Madrid
581,1554,Luis Barahona Soto - Parque Mediterráneo,Parada,36.6935462378515,-4.44443921482071,,http://www.emtmalaga.es/emt-mobile/informacionParada.html?codParada=1554,,,Europe/Madrid
582,1555,Avda. Sor Teresa Prat - Bda. De las Delicias,Parada,36.6959930538037,-4.44233896943667,,http://www.emtmalaga.es/emt-mobile/informacionParada.html?codParada=1555,,,Europe/Madrid
583,1556,Avda. Sor Teresa Prat - Ave Maria,Parada,36.6972881456105,-4.44136964453367,,http://www.emtmalaga.es/emt-mobile/informacionParada.html?codParada=1556,,,Europe/Madrid
584,1557,Avda. Sor Teresa Prat - Tabacalera,Parada,36.6994962622942,-4.43980516877387,,http://www.emtmalaga.es/emt-mobile/informacionParada.html?codParada=1557,,,Europe/Madrid
585,1558,Orellana Toledano - San Patricio,Parada,36.7022738854005,-4.43912368419617,,http://www.emtmalaga.es/emt-mobile/informacionParada.html?codParada=1558,,,Europe/Madrid
586,1559,Avda. Juan XXIII - Princesa,Parada,36.7046414244117,-4.44120332972858,,http://www.emtmalaga.es/emt-mobile/informacionParada.html?codParada=1559,,,Europe/Madrid
587,1560,Avda. Juan XXIII - La Unión,Parada,36.7089226698334,-4.44408045970004,,http://www.emtmalaga.es/emt-mobile/informacionParada.html?codParada=1560,,,Europe/Madrid
588,1561,Avda. Juan XXIII - Barbarela,Parada,36.7118594983347,-4.44608287328873,,http://www.emtmalaga.es/emt-mobile/informacionParada.html?codParada=1561,,,Europe/Madrid
590,1563,Avda. Santa Rosa de Lima - Polideportivo,Parada,36.7209172935605,-4.44903920339374,,http://www.emtmalaga.es/emt-mobile/informacionParada.html?codParada=1563,,,Europe/Madrid
592,1567,Eugenio Gross - Trinidad,Parada,36.7265846765981,-4.43497556976649,,http://www.emtmalaga.es/emt-mobile/informacionParada.html?codParada=1567,,,Europe/Madrid
2343,1569,Avda. Dr. Marañón - Conde de Ferrería,Parada,36.730845377118,-4.42834787997234,,http://www.emtmalaga.es/emt-mobile/informacionParada.html?codParada=1569,,,Europe/Madrid
595,1570,Avda. de la Palmilla - Campo de Fútbol,Parada,36.7335822126134,-4.42740306795633,,http://www.emtmalaga.es/emt-mobile/informacionParada.html?codParada=1570,,,Europe/Madrid
596,1571,Avda. de la Palmilla - Instituto Guadalmedina,Parada,36.7363215460969,-4.42716584886356,,http://www.emtmalaga.es/emt-mobile/informacionParada.html?codParada=1571,,,Europe/Madrid
597,1572,Avda. de la Palmilla - Centro de Salud,Parada,36.7382730118051,-4.42659146973162,,http://www.emtmalaga.es/emt-mobile/informacionParada.html?codParada=1572,,,Europe/Madrid
598,1573,Camino de la Virreina - Puente,Parada,36.7406863284915,-4.42618759616209,,http://www.emtmalaga.es/emt-mobile/informacionParada.html?codParada=1573,,,Europe/Madrid
601,1601,Paseo del Parque - Plaza del General Torrijos,Parada,36.7204992474813,-4.41313467245625,,http://www.emtmalaga.es/emt-mobile/informacionParada.html?codParada=1601,,,Europe/Madrid
602,1602,Camino de la Térmica - San Patricio,Parada,36.6870739712322,-4.44779705297274,,http://www.emtmalaga.es/emt-mobile/informacionParada.html?codParada=1602,,,Europe/Madrid
605,1606,Héroe de Sostoa - Estación,Parada,36.7111893366649,-4.43139679254205,,http://www.emtmalaga.es/emt-mobile/informacionParada.html?codParada=1606,,,Europe/Madrid
606,1607,Imperio Argentina - Camino de la Termica,Parada,36.6814311764821,-4.45107485369817,,http://www.emtmalaga.es/emt-mobile/informacionParada.html?codParada=1607,,,Europe/Madrid
607,1608,Marilyn Monroe,Parada,36.6817716750351,-4.45420573501687,,http://www.emtmalaga.es/emt-mobile/informacionParada.html?codParada=1608,,,Europe/Madrid
608,1609,Alicia De Larrocha,Parada,36.6820734028605,-4.45602153157011,,http://www.emtmalaga.es/emt-mobile/informacionParada.html?codParada=1609,,,Europe/Madrid
5778,1611,Camino de la Térmica - Central,Parada,36.6852713168343,-4.44871991875089,,http://www.emtmalaga.es/emt-mobile/informacionParada.html?codParada=1611,,,Europe/Madrid
611,1654,Camino de la Térmica - San Patricio,Parada,36.6865176896178,-4.44784564541558,,http://www.emtmalaga.es/emt-mobile/informacionParada.html?codParada=1654,,,Europe/Madrid
5776,1656,Imperio Argentina - Cmno. de la Térmica,Parada,36.6811284912421,-4.45114329459612,,http://www.emtmalaga.es/emt-mobile/informacionParada.html?codParada=1656,,,Europe/Madrid
5777,1658,Cmno. de la Térmica - Central,Parada,36.6852820715429,-4.4485093653432,,http://www.emtmalaga.es/emt-mobile/informacionParada.html?codParada=1658,,,Europe/Madrid
614,1659,Imperio Argentina - Palacio Deportes,Parada,36.6836851727099,-4.45777023783031,,http://www.emtmalaga.es/emt-mobile/informacionParada.html?codParada=1659,,,Europe/Madrid
615,1660,Imperio Argentina - Marilyn Monroe,Parada,36.6823911517583,-4.45441424849015,,http://www.emtmalaga.es/emt-mobile/informacionParada.html?codParada=1660,,,Europe/Madrid
617,1702,Plaza de la Virreina,Parada,36.7422614145729,-4.42650090000702,,http://www.emtmalaga.es/emt-mobile/informacionParada.html?codParada=1702,,,Europe/Madrid
619,1704,Dr. Muguerza Bernal - Manuel Callejon,Parada,36.7403356613947,-4.42884834941336,,http://www.emtmalaga.es/emt-mobile/informacionParada.html?codParada=1704,,,Europe/Madrid
621,1706,Eume - Mercado,Parada,36.7416624079565,-4.43138018145963,,http://www.emtmalaga.es/emt-mobile/informacionParada.html?codParada=1706,,,Europe/Madrid
622,1707,Ebro,Parada,36.7404554128022,-4.43217874153836,,http://www.emtmalaga.es/emt-mobile/informacionParada.html?codParada=1707,,,Europe/Madrid
2353,1708,Av. Luis Buñuel - La Roca,Parada,36.7333180103957,-4.42939045614667,,http://www.emtmalaga.es/emt-mobile/informacionParada.html?codParada=1708,,,Europe/Madrid
624,1709,Avda. Simón Bolivar - Centro Comercial,Parada,36.7347620925792,-4.43332430342119,,http://www.emtmalaga.es/emt-mobile/informacionParada.html?codParada=1709,,,Europe/Madrid
625,1710,Avda. Valle Inclán - La Palma,Parada,36.7373743722769,-4.42770636433639,,http://www.emtmalaga.es/emt-mobile/informacionParada.html?codParada=1710,,,Europe/Madrid
626,1711,Bidasoa,Parada,36.737833200709,-4.42744519583159,,http://www.emtmalaga.es/emt-mobile/informacionParada.html?codParada=1711,,,Europe/Madrid
627,1712,Jane Bowles - Von Karajan,Parada,36.7439781157262,-4.42643178659504,,http://www.emtmalaga.es/emt-mobile/informacionParada.html?codParada=1712,,,Europe/Madrid
628,1713,Jane Bowles - Borodin,Parada,36.7459496711111,-4.42627608092798,,http://www.emtmalaga.es/emt-mobile/informacionParada.html?codParada=1713,,,Europe/Madrid
629,1714,Atarazanas,Parada,36.7179149975713,-4.42443489048962,,http://www.emtmalaga.es/emt-mobile/informacionParada.html?codParada=1714,,,Europe/Madrid
631,1751,Deva - La Palma,Parada,36.7388563990433,-4.43232521051601,,http://www.emtmalaga.es/emt-mobile/informacionParada.html?codParada=1751,,,Europe/Madrid
632,1752,Duero,Parada,36.7378144779799,-4.43075577103139,,http://www.emtmalaga.es/emt-mobile/informacionParada.html?codParada=1752,,,Europe/Madrid
633,1753,Cabriel,Parada,36.7388798983026,-4.4300360092631,,http://www.emtmalaga.es/emt-mobile/informacionParada.html?codParada=1753,,,Europe/Madrid
634,1754,Cabriel - Rotonda,Parada,36.7401290750592,-4.42988334502284,,http://www.emtmalaga.es/emt-mobile/informacionParada.html?codParada=1754,,,Europe/Madrid
635,1755,Dr. Muguerza Bernal - Manuel Callejon,Parada,36.7402233396187,-4.42881365940981,,http://www.emtmalaga.es/emt-mobile/informacionParada.html?codParada=1755,,,Europe/Madrid
636,1756,Dr. Muguerza Bernal,Parada,36.7400053801391,-4.42646974814708,,http://www.emtmalaga.es/emt-mobile/informacionParada.html?codParada=1756,,,Europe/Madrid
637,1758,Avda. Valle Inclán - La Palma,Parada,36.7376160637964,-4.42796489976231,,http://www.emtmalaga.es/emt-mobile/informacionParada.html?codParada=1758,,,Europe/Madrid
638,1759,Avda. Simón Bolivar - Centro Comercial,Parada,36.7341973211423,-4.43364287471499,,http://www.emtmalaga.es/emt-mobile/informacionParada.html?codParada=1759,,,Europe/Madrid
639,1760,Avda. Luis Buñuel - La Roca,Parada,36.7329496303345,-4.42885600754785,,http://www.emtmalaga.es/emt-mobile/informacionParada.html?codParada=1760,,,Europe/Madrid
640,1761,Jane Bowles - Bruckner,Parada,36.7480213756519,-4.42643658223563,,http://www.emtmalaga.es/emt-mobile/informacionParada.html?codParada=1761,,,Europe/Madrid
641,1762,Jane Bowles - Borodin,Parada,36.7459313921363,-4.42653009308575,,http://www.emtmalaga.es/emt-mobile/informacionParada.html?codParada=1762,,,Europe/Madrid
642,1763,Jane Bowles - Von Karajan,Parada,36.7437316777378,-4.42665163037114,,http://www.emtmalaga.es/emt-mobile/informacionParada.html?codParada=1763,,,Europe/Madrid
643,1764,Jane Bowles - Bruckner,Parada,36.7482315205215,-4.42624174178918,,http://www.emtmalaga.es/emt-mobile/informacionParada.html?codParada=1764,,,Europe/Madrid
644,1802,Pso. Mtmo. Cdad. de Melilla - Pza.  Malagueta,Parada,36.7175797604324,-4.41034137906909,,http://www.emtmalaga.es/emt-mobile/informacionParada.html?codParada=1802,,,Europe/Madrid
645,1803,Paseo del Parque - Plaza Marina,Parada,36.7187827780044,-4.41893572713992,,http://www.emtmalaga.es/emt-mobile/informacionParada.html?codParada=1803,,,Europe/Madrid
646,1805,Av. de las Américas - Puente de las Américas,Parada,36.7155265208031,-4.43654107054803,,http://www.emtmalaga.es/emt-mobile/informacionParada.html?codParada=1805,,,Europe/Madrid
647,1809,Virgen de la Fuensanta - Mercado,Parada,36.7144839922845,-4.44393334614561,,http://www.emtmalaga.es/emt-mobile/informacionParada.html?codParada=1809,,,Europe/Madrid
648,1810,Avda. de la Aurora - Centro Comercial,Parada,36.7162826061097,-4.43147366778403,,http://www.emtmalaga.es/emt-mobile/informacionParada.html?codParada=1810,,,Europe/Madrid
649,1811,Avda. de la Aurora - Jardines Picasso,Parada,36.7163329079816,-4.43400349555365,,http://www.emtmalaga.es/emt-mobile/informacionParada.html?codParada=1811,,,Europe/Madrid
650,1812,Virgen de la Estrella - El Fuerte,Parada,36.7155609673344,-4.44289464942331,,http://www.emtmalaga.es/emt-mobile/informacionParada.html?codParada=1812,,,Europe/Madrid
651,1813,Av. de las Américas - Centro Comercial,Parada,36.7152390899712,-4.4351618052109,,http://www.emtmalaga.es/emt-mobile/informacionParada.html?codParada=1813,,,Europe/Madrid
652,1814,Av. J.L. Borges - Orson Welles,Parada,36.7201535656611,-4.46260245202292,,http://www.emtmalaga.es/emt-mobile/informacionParada.html?codParada=1814,,,Europe/Madrid
654,1852,Avda. Herrera Oria - Virgen de las Flores,Parada,36.7187073661314,-4.44373346483782,,http://www.emtmalaga.es/emt-mobile/informacionParada.html?codParada=1852,,,Europe/Madrid
655,1853,Virgen de la Esperanza - Avda. Andalucía,Parada,36.715218791381,-4.44548148446284,,http://www.emtmalaga.es/emt-mobile/informacionParada.html?codParada=1853,,,Europe/Madrid
656,1858,Avda. de la Aurora - Puente de las Américas,Parada,36.7156550074393,-4.43796447528563,,http://www.emtmalaga.es/emt-mobile/informacionParada.html?codParada=1858,,,Europe/Madrid
657,1859,Avda. de la Aurora - Jardines de Picasso,Parada,36.7161230668445,-4.43443460358335,,http://www.emtmalaga.es/emt-mobile/informacionParada.html?codParada=1859,,,Europe/Madrid
658,1860,Avda. de la Aurora - Centro Comercial,Parada,36.7160013346138,-4.43087974037135,,http://www.emtmalaga.es/emt-mobile/informacionParada.html?codParada=1860,,,Europe/Madrid
660,1862,Av. de las Américas - Centro Comercial,Parada,36.714697247234,-4.43428088785467,,http://www.emtmalaga.es/emt-mobile/informacionParada.html?codParada=1862,,,Europe/Madrid
661,1863,Blas de Lezo,Parada,36.7282780579355,-4.43455794933486,,http://www.emtmalaga.es/emt-mobile/informacionParada.html?codParada=1863,,,Europe/Madrid
662,1864,Las Virreinas,Parada,36.7518610343348,-4.42817468189112,,http://www.emtmalaga.es/emt-mobile/informacionParada.html?codParada=1864,,,Europe/Madrid
663,1901,Paseo del Parque - Plaza del General Torrijos,Parada,36.7201247830395,-4.41311663015976,,http://www.emtmalaga.es/emt-mobile/informacionParada.html?codParada=1901,,,Europe/Madrid
665,1905,Estación de Autobuses,Parada,36.7124763568783,-4.43374590194051,,http://www.emtmalaga.es/emt-mobile/informacionParada.html?codParada=1905,,,Europe/Madrid
667,1907,P.I. Huerta Correo,Parada,36.706646244317,-4.46607709335741,,http://www.emtmalaga.es/emt-mobile/informacionParada.html?codParada=1907,,,Europe/Madrid
668,1908,Poligono Alameda,Parada,36.7068109725952,-4.47036276568516,,http://www.emtmalaga.es/emt-mobile/informacionParada.html?codParada=1908,,,Europe/Madrid
669,1909,P.I.El Viso,Parada,36.7077469173704,-4.47585809021134,,http://www.emtmalaga.es/emt-mobile/informacionParada.html?codParada=1909,,,Europe/Madrid
670,1910,Sánchez Blanca,Parada,36.7085100773979,-4.48152767523353,,http://www.emtmalaga.es/emt-mobile/informacionParada.html?codParada=1910,,,Europe/Madrid
671,1911,San Jose del Viso,Parada,36.7084951409678,-4.48924165021396,,http://www.emtmalaga.es/emt-mobile/informacionParada.html?codParada=1911,,,Europe/Madrid
672,1912,Intelhorce,Parada,36.7082174927094,-4.492103185409,,http://www.emtmalaga.es/emt-mobile/informacionParada.html?codParada=1912,,,Europe/Madrid
673,1913,Tarajal,Parada,36.7062839025011,-4.50520042247463,,http://www.emtmalaga.es/emt-mobile/informacionParada.html?codParada=1913,,,Europe/Madrid
674,1914,P.I. La Huertecilla,Parada,36.7064416847763,-4.50900948641719,,http://www.emtmalaga.es/emt-mobile/informacionParada.html?codParada=1914,,,Europe/Madrid
675,1915,Mercamalaga,Parada,36.7062882114403,-4.51431564021691,,http://www.emtmalaga.es/emt-mobile/informacionParada.html?codParada=1915,,,Europe/Madrid
676,1916,P.I. Trévenez,Parada,36.7066343856627,-4.51974904711279,,http://www.emtmalaga.es/emt-mobile/informacionParada.html?codParada=1916,,,Europe/Madrid
677,1917,Cortijo Jurado,Parada,36.7143153885294,-4.52946542665658,,http://www.emtmalaga.es/emt-mobile/informacionParada.html?codParada=1917,,,Europe/Madrid
678,1918,Azucarera - Intelhorce,Parada,36.7043290774601,-4.49298688024786,,http://www.emtmalaga.es/emt-mobile/informacionParada.html?codParada=1918,,,Europe/Madrid
679,1953,Avda. Comandante García Morato - Aeroclub,Parada,36.6716729570314,-4.48468820554647,,http://www.emtmalaga.es/emt-mobile/informacionParada.html?codParada=1953,,,Europe/Madrid
682,1957,Aeropuerto - Servicios Administrativos,Parada,36.6730015743857,-4.48735975250546,,http://www.emtmalaga.es/emt-mobile/informacionParada.html?codParada=1957,,,Europe/Madrid
683,1959,Estación Autobuses,Parada,36.7124605560287,-4.43380869074259,,http://www.emtmalaga.es/emt-mobile/informacionParada.html?codParada=1959,,,Europe/Madrid
684,1960,Cortijo Jurado,Parada,36.7113699176016,-4.52658289460569,,http://www.emtmalaga.es/emt-mobile/informacionParada.html?codParada=1960,,,Europe/Madrid
685,1961,P.I. Trévenez,Parada,36.7065735112209,-4.51981988780923,,http://www.emtmalaga.es/emt-mobile/informacionParada.html?codParada=1961,,,Europe/Madrid
686,1962,Mercamalaga,Parada,36.7061391149661,-4.51430756465481,,http://www.emtmalaga.es/emt-mobile/informacionParada.html?codParada=1962,,,Europe/Madrid
687,1963,P.I. La Huertecilla,Parada,36.7063551817131,-4.51009674402161,,http://www.emtmalaga.es/emt-mobile/informacionParada.html?codParada=1963,,,Europe/Madrid
688,1964,El Tarajal,Parada,36.7061606055325,-4.50513870558273,,http://www.emtmalaga.es/emt-mobile/informacionParada.html?codParada=1964,,,Europe/Madrid
689,1965,Intelhorce,Parada,36.7078970788603,-4.49224142875871,,http://www.emtmalaga.es/emt-mobile/informacionParada.html?codParada=1965,,,Europe/Madrid
690,1966,San Jose del Viso,Parada,36.7080267201599,-4.48752387554551,,http://www.emtmalaga.es/emt-mobile/informacionParada.html?codParada=1966,,,Europe/Madrid
691,1967,Sánchez Blanca,Parada,36.707864246147,-4.47999058221053,,http://www.emtmalaga.es/emt-mobile/informacionParada.html?codParada=1967,,,Europe/Madrid
692,1968,P.I. El Viso,Parada,36.7073540671773,-4.47557566170734,,http://www.emtmalaga.es/emt-mobile/informacionParada.html?codParada=1968,,,Europe/Madrid
693,1969,Poligono Alameda,Parada,36.7064592137904,-4.47071148161296,,http://www.emtmalaga.es/emt-mobile/informacionParada.html?codParada=1969,,,Europe/Madrid
694,1970,P.I. Pérez Texeira,Parada,36.7063232302558,-4.46617285687921,,http://www.emtmalaga.es/emt-mobile/informacionParada.html?codParada=1970,,,Europe/Madrid
695,1971,Azucarera - Intelhorce,Parada,36.704389948679,-4.49299934442228,,http://www.emtmalaga.es/emt-mobile/informacionParada.html?codParada=1971,,,Europe/Madrid
696,1972,Santa Rosalia - Loma del Campo,Parada,36.7341383795184,-4.5761065131992,,http://www.emtmalaga.es/emt-mobile/informacionParada.html?codParada=1972,,,Europe/Madrid
698,2003,Plaza de Manuel Azaña,Parada,36.7150619533276,-4.44923672668201,,http://www.emtmalaga.es/emt-mobile/informacionParada.html?codParada=2003,,,Europe/Madrid
700,2009,Avda. de Andalucía - Rotonda,Parada,36.7170589825869,-4.43070335246087,,http://www.emtmalaga.es/emt-mobile/informacionParada.html?codParada=2009,,,Europe/Madrid
702,2011,Facultad de Medicina,Parada,36.7171174597842,-4.47310667979203,,http://www.emtmalaga.es/emt-mobile/informacionParada.html?codParada=2011,,,Europe/Madrid
5183,2012,Alameda Principal - Norte,Parada,36.7170363158384,-4.42519426347882,,http://www.emtmalaga.es/emt-mobile/informacionParada.html?codParada=2012,,,Europe/Madrid
703,2055,Plaza de Manuel Azaña,Parada,36.7146727821203,-4.44949944102619,,http://www.emtmalaga.es/emt-mobile/informacionParada.html?codParada=2055,,,Europe/Madrid
704,2056,Louis Pasteur,Parada,36.7160870615075,-4.47431489827851,,http://www.emtmalaga.es/emt-mobile/informacionParada.html?codParada=2056,,,Europe/Madrid
708,2061,Nazareno del Paso,Parada,36.7174879080402,-4.42712359495272,,http://www.emtmalaga.es/emt-mobile/informacionParada.html?codParada=2061,,,Europe/Madrid
4836,2062,Paquiro - EMT,Parada,36.6989941768124,-4.46864873173384,,http://www.emtmalaga.es/emt-mobile/informacionParada.html?codParada=2062,,,Europe/Madrid
710,2102,Avda. Lope de Vega - Depuradora,Parada,36.7296884001441,-4.46674075171312,,http://www.emtmalaga.es/emt-mobile/informacionParada.html?codParada=2102,,,Europe/Madrid
711,2103,Avda. Lope de Vega - El Atabal,Parada,36.7311371074878,-4.46895808684003,,http://www.emtmalaga.es/emt-mobile/informacionParada.html?codParada=2103,,,Europe/Madrid
712,2104,Avda. Lope de Vega - Los Ramos,Parada,36.7326710615668,-4.47370250627622,,http://www.emtmalaga.es/emt-mobile/informacionParada.html?codParada=2104,,,Europe/Madrid
713,2105,Lope de Rueda - Tomillar,Parada,36.7347343463587,-4.4782397085274,,http://www.emtmalaga.es/emt-mobile/informacionParada.html?codParada=2105,,,Europe/Madrid
714,2106,Lope de Rueda - Patronato Vivienda,Parada,36.7361754480948,-4.47918536269334,,http://www.emtmalaga.es/emt-mobile/informacionParada.html?codParada=2106,,,Europe/Madrid
715,2107,Lope de Rueda - Tomillares,Parada,36.7380158594323,-4.48043539498333,,http://www.emtmalaga.es/emt-mobile/informacionParada.html?codParada=2107,,,Europe/Madrid
716,2108,Lope de Rueda - Correos,Parada,36.7398574939658,-4.48191755950041,,http://www.emtmalaga.es/emt-mobile/informacionParada.html?codParada=2108,,,Europe/Madrid
717,2109,Lope de Rueda - Los Morales,Parada,36.7400432421094,-4.48489943781882,,http://www.emtmalaga.es/emt-mobile/informacionParada.html?codParada=2109,,,Europe/Madrid
718,2110,Lope de Rueda - Sta. Isabel,Parada,36.7418129683095,-4.48805612186902,,http://www.emtmalaga.es/emt-mobile/informacionParada.html?codParada=2110,,,Europe/Madrid
719,2111,Lope de Rueda - Las Morillas,Parada,36.7435250084271,-4.48969895244577,,http://www.emtmalaga.es/emt-mobile/informacionParada.html?codParada=2111,,,Europe/Madrid
720,2112,Puerto de la Torre - Salinas,Parada,36.7452404666395,-4.49139941826926,,http://www.emtmalaga.es/emt-mobile/informacionParada.html?codParada=2112,,,Europe/Madrid
721,2113,Puerto Sol,Parada,36.7468829394528,-4.49232548407256,,http://www.emtmalaga.es/emt-mobile/informacionParada.html?codParada=2113,,,Europe/Madrid
722,2114,San Cayetano,Parada,36.754673259113,-4.49396854164969,,http://www.emtmalaga.es/emt-mobile/informacionParada.html?codParada=2114,,,Europe/Madrid
723,2115,El Cortijuelo,Parada,36.7571628645161,-4.49536570020686,,http://www.emtmalaga.es/emt-mobile/informacionParada.html?codParada=2115,,,Europe/Madrid
724,2116,Avda. Lope de Vega - Hacienda Cabello,Parada,36.7278142643515,-4.46380598327134,,http://www.emtmalaga.es/emt-mobile/informacionParada.html?codParada=2116,,,Europe/Madrid
725,2117,Avda. Lope de Vega - Rosa Garcia,Parada,36.7329835890657,-4.47530108771216,,http://www.emtmalaga.es/emt-mobile/informacionParada.html?codParada=2117,,,Europe/Madrid
726,2118,Hilera - Armengual de la Mota,Parada,36.7179563542971,-4.42807837648224,,http://www.emtmalaga.es/emt-mobile/informacionParada.html?codParada=2118,,,Europe/Madrid
727,2119,Alameda Principal - Sur,Parada,36.7171559614835,-4.42404080819971,,http://www.emtmalaga.es/emt-mobile/informacionParada.html?codParada=2119,,,Europe/Madrid
728,2151,Junta de los Caminos,Parada,36.7596529831369,-4.49685601258865,,http://www.emtmalaga.es/emt-mobile/informacionParada.html?codParada=2151,,,Europe/Madrid
729,2152,El Cortijuelo,Parada,36.7562580405063,-4.49509657882167,,http://www.emtmalaga.es/emt-mobile/informacionParada.html?codParada=2152,,,Europe/Madrid
730,2153,San Cayetano,Parada,36.7538459982642,-4.49351473708679,,http://www.emtmalaga.es/emt-mobile/informacionParada.html?codParada=2153,,,Europe/Madrid
731,2154,Puerto Sol,Parada,36.7488879559074,-4.49324706305669,,http://www.emtmalaga.es/emt-mobile/informacionParada.html?codParada=2154,,,Europe/Madrid
732,2155,Puerto de la Torre - Salinas,Parada,36.7450832161051,-4.49155995286403,,http://www.emtmalaga.es/emt-mobile/informacionParada.html?codParada=2155,,,Europe/Madrid
733,2156,Lope de Rueda - Las Morillas,Parada,36.7425695979606,-4.48898062843484,,http://www.emtmalaga.es/emt-mobile/informacionParada.html?codParada=2156,,,Europe/Madrid
734,2157,Lope de Rueda - Sta. Isabel,Parada,36.7411196717717,-4.48763279279116,,http://www.emtmalaga.es/emt-mobile/informacionParada.html?codParada=2157,,,Europe/Madrid
735,2158,Lope de Rueda - Los Morales,Parada,36.7399293711871,-4.48450049427326,,http://www.emtmalaga.es/emt-mobile/informacionParada.html?codParada=2158,,,Europe/Madrid
736,2159,Lope de Rueda - Correos,Parada,36.738970946705,-4.48130999090444,,http://www.emtmalaga.es/emt-mobile/informacionParada.html?codParada=2159,,,Europe/Madrid
737,2160,Lope de Rueda - Tomillares,Parada,36.7373923652465,-4.48014688364727,,http://www.emtmalaga.es/emt-mobile/informacionParada.html?codParada=2160,,,Europe/Madrid
738,2161,Lope de Rueda - Patronato Vivienda,Parada,36.7360436402112,-4.47923439719581,,http://www.emtmalaga.es/emt-mobile/informacionParada.html?codParada=2161,,,Europe/Madrid
739,2162,Lope de Rueda - El Tomillar,Parada,36.7347308214924,-4.47837759392147,,http://www.emtmalaga.es/emt-mobile/informacionParada.html?codParada=2162,,,Europe/Madrid
740,2163,Avda. Lope de Vega - Los Ramos,Parada,36.7324951205664,-4.47357708276503,,http://www.emtmalaga.es/emt-mobile/informacionParada.html?codParada=2163,,,Europe/Madrid
741,2164,Avda. Lope de Vega - El Atabal,Parada,36.7309143497781,-4.46892628620421,,http://www.emtmalaga.es/emt-mobile/informacionParada.html?codParada=2164,,,Europe/Madrid
742,2165,Av Lope de Vega - Universidad Laboral,Parada,36.7294525976463,-4.46676386651253,,http://www.emtmalaga.es/emt-mobile/informacionParada.html?codParada=2165,,,Europe/Madrid
743,2166,Lope de Vega - Hacienda Cabello,Parada,36.7276785148156,-4.46400884789579,,http://www.emtmalaga.es/emt-mobile/informacionParada.html?codParada=2166,,,Europe/Madrid
744,2167,Avda. Lope de Vega - Rosa Garcia,Parada,36.7328200586755,-4.47533443510384,,http://www.emtmalaga.es/emt-mobile/informacionParada.html?codParada=2167,,,Europe/Madrid
745,2168,Alameda Principal - Norte,Parada,36.7173012644852,-4.4241036369194,,http://www.emtmalaga.es/emt-mobile/informacionParada.html?codParada=2168,,,Europe/Madrid
746,2169,Paseo del Parque,Parada,36.7191261806845,-4.41689041846256,,http://www.emtmalaga.es/emt-mobile/informacionParada.html?codParada=2169,,,Europe/Madrid
747,2201,Avda. de Velázquez - Avda. Moliére,Parada,36.6912527757014,-4.45634220871997,,http://www.emtmalaga.es/emt-mobile/informacionParada.html?codParada=2201,,,Europe/Madrid
748,2202,Isla Cristina,Parada,36.7012830745031,-4.44186948751767,,http://www.emtmalaga.es/emt-mobile/informacionParada.html?codParada=2202,,,Europe/Madrid
749,2203,Isla Cristina - 25 años de Paz,Parada,36.7025123707881,-4.44045684490131,,http://www.emtmalaga.es/emt-mobile/informacionParada.html?codParada=2203,,,Europe/Madrid
750,2204,Palacio de Ferias,Parada,36.7073559499482,-4.46189716492523,,http://www.emtmalaga.es/emt-mobile/informacionParada.html?codParada=2204,,,Europe/Madrid
752,2206,Louis Pasteur,Parada,36.7161193126965,-4.47403997185445,,http://www.emtmalaga.es/emt-mobile/informacionParada.html?codParada=2206,,,Europe/Madrid
753,2207,Gregorio Prieto - Franz Kafka,Parada,36.7161487532263,-4.46333823972829,,http://www.emtmalaga.es/emt-mobile/informacionParada.html?codParada=2207,,,Europe/Madrid
754,2251,Hospital Clínico,Parada,36.7176979148852,-4.47619855575294,,http://www.emtmalaga.es/emt-mobile/informacionParada.html?codParada=2251,,,Europe/Madrid
756,2253,Facultad de  Filosofia y letras,Parada,36.7166108629014,-4.47046158409795,,http://www.emtmalaga.es/emt-mobile/informacionParada.html?codParada=2253,,,Europe/Madrid
758,2302,Tamayo y Baus - El Atabal,Parada,36.7293605539529,-4.46727656342766,,http://www.emtmalaga.es/emt-mobile/informacionParada.html?codParada=2302,,,Europe/Madrid
759,2303,Tamayo y Baus,Parada,36.7278285003033,-4.46712078932152,,http://www.emtmalaga.es/emt-mobile/informacionParada.html?codParada=2303,,,Europe/Madrid
760,2304,Navarro Ledesma - La Palma,Parada,36.7244265596881,-4.47253558318067,,http://www.emtmalaga.es/emt-mobile/informacionParada.html?codParada=2304,,,Europe/Madrid
761,2305,Navarro Ledesma - Altamira,Parada,36.7244823365947,-4.48050540624763,,http://www.emtmalaga.es/emt-mobile/informacionParada.html?codParada=2305,,,Europe/Madrid
762,2306,Navarro Ledesma - El Cónsul,Parada,36.723909820269,-4.48325846742187,,http://www.emtmalaga.es/emt-mobile/informacionParada.html?codParada=2306,,,Europe/Madrid
763,2307,Navarro Ledesma - El Cónsul,Parada,36.7228381860482,-4.48614110536408,,http://www.emtmalaga.es/emt-mobile/informacionParada.html?codParada=2307,,,Europe/Madrid
765,2310,Camino Colonia Sta Inés - Viviendas Prefabricadas,Parada,36.7197059084185,-4.50318173537067,,http://www.emtmalaga.es/emt-mobile/informacionParada.html?codParada=2310,,,Europe/Madrid
766,2311,Camino Colonia Sta Inés - Los Asperones,Parada,36.7193016874736,-4.50748943315519,,http://www.emtmalaga.es/emt-mobile/informacionParada.html?codParada=2311,,,Europe/Madrid
768,2313,Navarro Ledesma - Torre Atalaya,Parada,36.7244205632582,-4.47678023335174,,http://www.emtmalaga.es/emt-mobile/informacionParada.html?codParada=2313,,,Europe/Madrid
770,2315,Avda. Lope de Vega - Julio Cortazar,Parada,36.7303697832418,-4.46778342216248,,http://www.emtmalaga.es/emt-mobile/informacionParada.html?codParada=2315,,,Europe/Madrid
772,2317,Navarro Ledesma - Maria Barrientos,Parada,36.7219017928542,-4.48879235556379,,http://www.emtmalaga.es/emt-mobile/informacionParada.html?codParada=2317,,,Europe/Madrid
773,2318,Senador Fernández Pelegrina,Parada,36.7222123286208,-4.49230258673254,,http://www.emtmalaga.es/emt-mobile/informacionParada.html?codParada=2318,,,Europe/Madrid
774,2319,Escritor Antonio Soler - Cristobal Cuevas,Parada,36.7233334885468,-4.49339606072965,,http://www.emtmalaga.es/emt-mobile/informacionParada.html?codParada=2319,,,Europe/Madrid
775,2320,Escritor Antonio Soler - Navarro Ledesma,Parada,36.7214418346387,-4.49529405178131,,http://www.emtmalaga.es/emt-mobile/informacionParada.html?codParada=2320,,,Europe/Madrid
776,2321,Parque Cementerio - Camino Santa Inés,Parada,36.7199807571961,-4.51479211452764,,http://www.emtmalaga.es/emt-mobile/informacionParada.html?codParada=2321,,,Europe/Madrid
3638,2322,Av. Octavio Paz,Parada,36.7303462633228,-4.46207609082644,,http://www.emtmalaga.es/emt-mobile/informacionParada.html?codParada=2322,,,Europe/Madrid
3640,2323,Av. Julio Cortázar,Parada,36.7320665805683,-4.46384560123783,,http://www.emtmalaga.es/emt-mobile/informacionParada.html?codParada=2323,,,Europe/Madrid
3637,2324,Av. Octavio Paz - Plaza Manos Unidas,Parada,36.7281595730147,-4.46290179827013,,http://www.emtmalaga.es/emt-mobile/informacionParada.html?codParada=2324,,,Europe/Madrid
3958,2325,Paseo del Parque - Ayuntamiento,Parada,36.7200414547732,-4.41451810998078,,http://www.emtmalaga.es/emt-mobile/informacionParada.html?codParada=2325,,,Europe/Madrid
777,2351,Parque Cementerio,Parada,36.721215863585,-4.51639008236974,,http://www.emtmalaga.es/emt-mobile/informacionParada.html?codParada=2351,,,Europe/Madrid
779,2353,Camino Colonia Sta Inés - Los Asperones,Parada,36.7190810459261,-4.50760240498437,,http://www.emtmalaga.es/emt-mobile/informacionParada.html?codParada=2353,,,Europe/Madrid
780,2354,Camino Colonia Sta Inés - Viviendas Prefabricadas,Parada,36.7196537169622,-4.50299836672602,,http://www.emtmalaga.es/emt-mobile/informacionParada.html?codParada=2354,,,Europe/Madrid
782,2357,Navarro Ledesma - El Cónsul,Parada,36.722714162733,-4.48604582205076,,http://www.emtmalaga.es/emt-mobile/informacionParada.html?codParada=2357,,,Europe/Madrid
783,2358,Navarro Ledesma - El Cónsul,Parada,36.7238027045468,-4.48306412104385,,http://www.emtmalaga.es/emt-mobile/informacionParada.html?codParada=2358,,,Europe/Madrid
784,2359,Navarro Ledesma - Altamira,Parada,36.7243300724572,-4.47928984281248,,http://www.emtmalaga.es/emt-mobile/informacionParada.html?codParada=2359,,,Europe/Madrid
785,2360,Navarro Ledesma - La Palma,Parada,36.724273292526,-4.4725233804168,,http://www.emtmalaga.es/emt-mobile/informacionParada.html?codParada=2360,,,Europe/Madrid
786,2361,Tamayo y Baus,Parada,36.7278122548098,-4.46690600579234,,http://www.emtmalaga.es/emt-mobile/informacionParada.html?codParada=2361,,,Europe/Madrid
787,2362,Navarro Ledesma - Torre Atalaya,Parada,36.7241126898577,-4.47557619321062,,http://www.emtmalaga.es/emt-mobile/informacionParada.html?codParada=2362,,,Europe/Madrid
788,2363,Frances Bosca,Parada,36.72648550002,-4.46887708661655,,http://www.emtmalaga.es/emt-mobile/informacionParada.html?codParada=2363,,,Europe/Madrid
790,2365,Navarrro Ledesma - Maria Barrientos,Parada,36.7217404653745,-4.48870695626614,,http://www.emtmalaga.es/emt-mobile/informacionParada.html?codParada=2365,,,Europe/Madrid
791,2366,Escritor Antonio Soler - Navarro Ledesma,Parada,36.7212413172258,-4.49496486158574,,http://www.emtmalaga.es/emt-mobile/informacionParada.html?codParada=2366,,,Europe/Madrid
792,2367,Catedrático Cristobal Cuevas,Parada,36.7232554758766,-4.49242507315274,,http://www.emtmalaga.es/emt-mobile/informacionParada.html?codParada=2367,,,Europe/Madrid
793,2368,Felix Gancedo,Parada,36.7217456832466,-4.49206493813331,,http://www.emtmalaga.es/emt-mobile/informacionParada.html?codParada=2368,,,Europe/Madrid
3641,2369,Bruno Walter,Parada,36.7324906660886,-4.46396366545003,,http://www.emtmalaga.es/emt-mobile/informacionParada.html?codParada=2369,,,Europe/Madrid
3639,2370,Av. Octavio Paz,Parada,36.7300453651355,-4.46245393879763,,http://www.emtmalaga.es/emt-mobile/informacionParada.html?codParada=2370,,,Europe/Madrid
3696,2371,Av. Octavio Paz - Plaza Manos Unidas,Parada,36.7281014552835,-4.46319900179971,,http://www.emtmalaga.es/emt-mobile/informacionParada.html?codParada=2371,,,Europe/Madrid
794,2401,Avda. M. Agustín Heredia,Parada,36.7154118762849,-4.42202790182015,,http://www.emtmalaga.es/emt-mobile/informacionParada.html?codParada=2401,,,Europe/Madrid
795,2402,Camino de San Rafael,Parada,36.7116054719277,-4.44175571483827,,http://www.emtmalaga.es/emt-mobile/informacionParada.html?codParada=2402,,,Europe/Madrid
796,2403,Camino de San Rafael - Sta Julia,Parada,36.7100157602462,-4.44416475832191,,http://www.emtmalaga.es/emt-mobile/informacionParada.html?codParada=2403,,,Europe/Madrid
797,2404,Camino de San Rafael - La Asunción,Parada,36.7091733910335,-4.44608614017955,,http://www.emtmalaga.es/emt-mobile/informacionParada.html?codParada=2404,,,Europe/Madrid
798,2405,Camino de San Rafael - Sta. Isabel,Parada,36.7077958641704,-4.44813910956996,,http://www.emtmalaga.es/emt-mobile/informacionParada.html?codParada=2405,,,Europe/Madrid
800,2408,Paquiro - Polígono La Estrella,Parada,36.7003636533265,-4.46438039890916,,http://www.emtmalaga.es/emt-mobile/informacionParada.html?codParada=2408,,,Europe/Madrid
801,2409,Paquiro - C/ La Orotava,Parada,36.699236140434,-4.4682083287225,,http://www.emtmalaga.es/emt-mobile/informacionParada.html?codParada=2409,,,Europe/Madrid
802,2410,Camino de los Prados - Polígono San Luis,Parada,36.6990765376921,-4.4720408166405,,http://www.emtmalaga.es/emt-mobile/informacionParada.html?codParada=2410,,,Europe/Madrid
803,2411,Bda. los Prados - Colegio,Parada,36.698992312407,-4.47483627928064,,http://www.emtmalaga.es/emt-mobile/informacionParada.html?codParada=2411,,,Europe/Madrid
805,2413,Cmno. San Rafael - Recinto Ferial,Parada,36.7017974933454,-4.46111441739807,,http://www.emtmalaga.es/emt-mobile/informacionParada.html?codParada=2413,,,Europe/Madrid
806,2414,Cmno. San Rafael - EMT,Parada,36.7048572151094,-4.45350419314133,,http://www.emtmalaga.es/emt-mobile/informacionParada.html?codParada=2414,,,Europe/Madrid
807,2415,Cmno. San Rafael - El Copo,Parada,36.7040285866073,-4.45540033885238,,http://www.emtmalaga.es/emt-mobile/informacionParada.html?codParada=2415,,,Europe/Madrid
808,2416,Avda. Manuel Agustin Heredia - CARE,Parada,36.7124575822154,-4.42489169725114,,http://www.emtmalaga.es/emt-mobile/informacionParada.html?codParada=2416,,,Europe/Madrid
809,2417,Paseo de los Tilos - Estación de Autobuses,Parada,36.7135600028889,-4.43370145837462,,http://www.emtmalaga.es/emt-mobile/informacionParada.html?codParada=2417,,,Europe/Madrid
811,2451,Bda. Los Prados - C/ Eslora,Parada,36.6992209976067,-4.4769380934261,,http://www.emtmalaga.es/emt-mobile/informacionParada.html?codParada=2451,,,Europe/Madrid
812,2452,Bda. de los Prados - Colegio,Parada,36.6988363852135,-4.47481247814359,,http://www.emtmalaga.es/emt-mobile/informacionParada.html?codParada=2452,,,Europe/Madrid
813,2453,Camino de los Prados - San Luis,Parada,36.6989124890226,-4.47213649011791,,http://www.emtmalaga.es/emt-mobile/informacionParada.html?codParada=2453,,,Europe/Madrid
814,2454,Paquiro - Polígono La Estrella,Parada,36.6998649943158,-4.46497105017983,,http://www.emtmalaga.es/emt-mobile/informacionParada.html?codParada=2454,,,Europe/Madrid
816,2457,Camino de San Rafael - Ceramistas,Parada,36.7073345095595,-4.44855524013364,,http://www.emtmalaga.es/emt-mobile/informacionParada.html?codParada=2457,,,Europe/Madrid
817,2458,Camino de San Rafael - Colegio,Parada,36.7092478721974,-4.44566037317734,,http://www.emtmalaga.es/emt-mobile/informacionParada.html?codParada=2458,,,Europe/Madrid
818,2459,La Unión - La Concepción,Parada,36.7088780342658,-4.44349919143538,,http://www.emtmalaga.es/emt-mobile/informacionParada.html?codParada=2459,,,Europe/Madrid
819,2460,La Unión - Los Planetas,Parada,36.7099543038796,-4.44138747287564,,http://www.emtmalaga.es/emt-mobile/informacionParada.html?codParada=2460,,,Europe/Madrid
820,2461,Camino de los Prados - Estación,Parada,36.698856287371,-4.47657939433786,,http://www.emtmalaga.es/emt-mobile/informacionParada.html?codParada=2461,,,Europe/Madrid
821,2463,Cmno. San Rafel - Recinto Ferial,Parada,36.7012668897923,-4.46100215632264,,http://www.emtmalaga.es/emt-mobile/informacionParada.html?codParada=2463,,,Europe/Madrid
822,2464,Cmno. San Rafael - El Copo,Parada,36.703600734226,-4.4558146636428,,http://www.emtmalaga.es/emt-mobile/informacionParada.html?codParada=2464,,,Europe/Madrid
823,2465,Cmno. San Rafael - EMT,Parada,36.7048765947124,-4.45300220523435,,http://www.emtmalaga.es/emt-mobile/informacionParada.html?codParada=2465,,,Europe/Madrid
824,2466,Ingeniero Garnica,Parada,36.7099756166068,-4.42847998338794,,http://www.emtmalaga.es/emt-mobile/informacionParada.html?codParada=2466,,,Europe/Madrid
827,2502,Andrés Llorden,Parada,36.713756903327,-4.47372559621551,,http://www.emtmalaga.es/emt-mobile/informacionParada.html?codParada=2502,,,Europe/Madrid
828,2503,Duque de Ahumada,Parada,36.7142070379678,-4.48202112519481,,http://www.emtmalaga.es/emt-mobile/informacionParada.html?codParada=2503,,,Europe/Madrid
829,2504,Centro de Transporte de Mercancías,Parada,36.7125429361245,-4.51291387138265,,http://www.emtmalaga.es/emt-mobile/informacionParada.html?codParada=2504,,,Europe/Madrid
830,2505,Parque Cementerio,Parada,36.7197168346415,-4.5155544375493,,http://www.emtmalaga.es/emt-mobile/informacionParada.html?codParada=2505,,,Europe/Madrid
831,2506,Los Asperones 2,Parada,36.7189486755387,-4.5247795682773,,http://www.emtmalaga.es/emt-mobile/informacionParada.html?codParada=2506,,,Europe/Madrid
832,2507,Vallejo,Parada,36.7190881889985,-4.53118964368425,,http://www.emtmalaga.es/emt-mobile/informacionParada.html?codParada=2507,,,Europe/Madrid
833,2508,Pilar del Prado,Parada,36.7207175346679,-4.53490820667299,,http://www.emtmalaga.es/emt-mobile/informacionParada.html?codParada=2508,,,Europe/Madrid
834,2509,José Calderón - Centro de Salud,Parada,36.7229721160148,-4.5375405503816,,http://www.emtmalaga.es/emt-mobile/informacionParada.html?codParada=2509,,,Europe/Madrid
835,2510,José Calderón - Instituto,Parada,36.7243594516452,-4.53938095039086,,http://www.emtmalaga.es/emt-mobile/informacionParada.html?codParada=2510,,,Europe/Madrid
836,2511,José Calderón,Parada,36.725357653065,-4.54079267221197,,http://www.emtmalaga.es/emt-mobile/informacionParada.html?codParada=2511,,,Europe/Madrid
837,2512,José Calderón - Junta de Distrito,Parada,36.7276503948538,-4.54415693882717,,http://www.emtmalaga.es/emt-mobile/informacionParada.html?codParada=2512,,,Europe/Madrid
838,2513,José Calderón - Instalaciones Deportivas,Parada,36.7295722527092,-4.54773500565362,,http://www.emtmalaga.es/emt-mobile/informacionParada.html?codParada=2513,,,Europe/Madrid
839,2514,Parque Tecnológico,Parada,36.7314966192716,-4.5508556185578,,http://www.emtmalaga.es/emt-mobile/informacionParada.html?codParada=2514,,,Europe/Madrid
840,2515,Escuela Agrícola,Parada,36.7331534718181,-4.56046241315628,,http://www.emtmalaga.es/emt-mobile/informacionParada.html?codParada=2515,,,Europe/Madrid
841,2516,Maqueda,Parada,36.7331143007083,-4.56611895032184,,http://www.emtmalaga.es/emt-mobile/informacionParada.html?codParada=2516,,,Europe/Madrid
842,2517,Miranda,Parada,36.7328651491146,-4.56847026515531,,http://www.emtmalaga.es/emt-mobile/informacionParada.html?codParada=2517,,,Europe/Madrid
843,2519,Avda. Juan López Peñalver,Parada,36.7318107423765,-4.550324525317,,http://www.emtmalaga.es/emt-mobile/informacionParada.html?codParada=2519,,,Europe/Madrid
844,2520,Avda. Juan López Peñalver - Marie Curie,Parada,36.7372132432113,-4.5533073509794,,http://www.emtmalaga.es/emt-mobile/informacionParada.html?codParada=2520,,,Europe/Madrid
846,2522,Severo Ochoa - Rotonda,Parada,36.7384739580379,-4.55467057392563,,http://www.emtmalaga.es/emt-mobile/informacionParada.html?codParada=2522,,,Europe/Madrid
847,2523,Severo Ochoa,Parada,36.7384957865468,-4.55746427856249,,http://www.emtmalaga.es/emt-mobile/informacionParada.html?codParada=2523,,,Europe/Madrid
848,2524,Severo Ochoa,Parada,36.7359334588813,-4.55693593048574,,http://www.emtmalaga.es/emt-mobile/informacionParada.html?codParada=2524,,,Europe/Madrid
4876,2528,Severo Ochoa - Juan López Peñalver,Parada,36.7384134689635,-4.55340251330304,,http://www.emtmalaga.es/emt-mobile/informacionParada.html?codParada=2528,,,Europe/Madrid
4878,2529,James Maxwell,Parada,36.7411443025776,-4.55217808488754,,http://www.emtmalaga.es/emt-mobile/informacionParada.html?codParada=2529,,,Europe/Madrid
851,2551,Santa Rosalía - Loma del Campo,Parada,36.7339332190954,-4.57590227146331,,http://www.emtmalaga.es/emt-mobile/informacionParada.html?codParada=2551,,,Europe/Madrid
852,2552,Sta. Rosalía - Ronda Norte,Parada,36.7329545427699,-4.57212420385822,,http://www.emtmalaga.es/emt-mobile/informacionParada.html?codParada=2552,,,Europe/Madrid
853,2553,Sta. Rosalía - Maqueda,Parada,36.7327424303459,-4.56711738579962,,http://www.emtmalaga.es/emt-mobile/informacionParada.html?codParada=2553,,,Europe/Madrid
854,2554,Escuela Agrícola,Parada,36.7330390284388,-4.56051626948065,,http://www.emtmalaga.es/emt-mobile/informacionParada.html?codParada=2554,,,Europe/Madrid
855,2555,Parque Tecnológico,Parada,36.7305404158476,-4.54963798075659,,http://www.emtmalaga.es/emt-mobile/informacionParada.html?codParada=2555,,,Europe/Madrid
856,2556,José Calderón - Instalaciones Deportivas,Parada,36.7290673982727,-4.54697733869392,,http://www.emtmalaga.es/emt-mobile/informacionParada.html?codParada=2556,,,Europe/Madrid
857,2557,José Calderón - Junta de Distrito,Parada,36.7276628515616,-4.54444803296222,,http://www.emtmalaga.es/emt-mobile/informacionParada.html?codParada=2557,,,Europe/Madrid
858,2558,José Calderón,Parada,36.7264026553945,-4.54248049377992,,http://www.emtmalaga.es/emt-mobile/informacionParada.html?codParada=2558,,,Europe/Madrid
859,2559,José Calderón - Instituto,Parada,36.7243093567194,-4.53950533453802,,http://www.emtmalaga.es/emt-mobile/informacionParada.html?codParada=2559,,,Europe/Madrid
860,2560,José Calderón - Centro de Salud,Parada,36.7229808853632,-4.53771434980328,,http://www.emtmalaga.es/emt-mobile/informacionParada.html?codParada=2560,,,Europe/Madrid
861,2561,Pilar del Prado,Parada,36.7207341254866,-4.53512373986465,,http://www.emtmalaga.es/emt-mobile/informacionParada.html?codParada=2561,,,Europe/Madrid
862,2562,Vallejo.,Parada,36.7189180874646,-4.53116649669331,,http://www.emtmalaga.es/emt-mobile/informacionParada.html?codParada=2562,,,Europe/Madrid
863,2563,Los Asperones 2,Parada,36.7188481301381,-4.5247693218724,,http://www.emtmalaga.es/emt-mobile/informacionParada.html?codParada=2563,,,Europe/Madrid
864,2564,Parque Cementerio,Parada,36.7196227511747,-4.51556119136851,,http://www.emtmalaga.es/emt-mobile/informacionParada.html?codParada=2564,,,Europe/Madrid
865,2565,Centro de Transporte de Mercancías,Parada,36.7125436418421,-4.51285835383268,,http://www.emtmalaga.es/emt-mobile/informacionParada.html?codParada=2565,,,Europe/Madrid
866,2566,Duque de Ahumada,Parada,36.7138791876759,-4.48201406553095,,http://www.emtmalaga.es/emt-mobile/informacionParada.html?codParada=2566,,,Europe/Madrid
867,2567,Andrés Llordén,Parada,36.713376259559,-4.47386756549473,,http://www.emtmalaga.es/emt-mobile/informacionParada.html?codParada=2567,,,Europe/Madrid
868,2569,Avda. Juan López Peñalver - Marie Curie,Parada,36.7364504797534,-4.55309190934359,,http://www.emtmalaga.es/emt-mobile/informacionParada.html?codParada=2569,,,Europe/Madrid
869,2571,Sta. Rosalía - Miranda,Parada,36.7325201108542,-4.568799566608,,http://www.emtmalaga.es/emt-mobile/informacionParada.html?codParada=2571,,,Europe/Madrid
870,2572,Severo Ochoa,Parada,36.736200180524,-4.55668094739128,,http://www.emtmalaga.es/emt-mobile/informacionParada.html?codParada=2572,,,Europe/Madrid
871,2573,Severo Ochoa,Parada,36.7386372024378,-4.55746448753586,,http://www.emtmalaga.es/emt-mobile/informacionParada.html?codParada=2573,,,Europe/Madrid
872,2574,Severo Ochoa - Rotonda,Parada,36.7383865970017,-4.55458353959394,,http://www.emtmalaga.es/emt-mobile/informacionParada.html?codParada=2574,,,Europe/Madrid
873,2575,Avda. Juan Lopez Peñalver,Parada,36.7317967760235,-4.55054757560759,,http://www.emtmalaga.es/emt-mobile/informacionParada.html?codParada=2575,,,Europe/Madrid
874,2576,Escuela Agrícola,Parada,36.7327233259332,-4.56038640293697,,http://www.emtmalaga.es/emt-mobile/informacionParada.html?codParada=2576,,,Europe/Madrid
4879,2583,James Maxwell,Parada,36.7422415523185,-4.55163896087546,,http://www.emtmalaga.es/emt-mobile/informacionParada.html?codParada=2583,,,Europe/Madrid
4877,2584,Severo Ochoa - Juan López Peñalver,Parada,36.7384919240198,-4.55355808142594,,http://www.emtmalaga.es/emt-mobile/informacionParada.html?codParada=2584,,,Europe/Madrid
880,2603,Rosario Pino - Cruz Roja,Parada,36.7307618689357,-4.42475971438633,,http://www.emtmalaga.es/emt-mobile/informacionParada.html?codParada=2603,,,Europe/Madrid
881,2604,Rosario Pino,Parada,36.7326437401142,-4.42396886871391,,http://www.emtmalaga.es/emt-mobile/informacionParada.html?codParada=2604,,,Europe/Madrid
882,2605,Lorenza Correa,Parada,36.7388874132153,-4.42275151947737,,http://www.emtmalaga.es/emt-mobile/informacionParada.html?codParada=2605,,,Europe/Madrid
883,2606,María Tubau,Parada,36.7406149659978,-4.42259501727014,,http://www.emtmalaga.es/emt-mobile/informacionParada.html?codParada=2606,,,Europe/Madrid
884,2607,Emilio Thuillier - La Fuente,Parada,36.7430040631675,-4.42222161908984,,http://www.emtmalaga.es/emt-mobile/informacionParada.html?codParada=2607,,,Europe/Madrid
885,2608,Emilio Thuillier,Parada,36.7448919555182,-4.42191353748645,,http://www.emtmalaga.es/emt-mobile/informacionParada.html?codParada=2608,,,Europe/Madrid
886,2609,Jerez Perchet - Emilio Thuiller,Parada,36.7458905881275,-4.42132088401837,,http://www.emtmalaga.es/emt-mobile/informacionParada.html?codParada=2609,,,Europe/Madrid
887,2610,Jerez Perchet - Los Casinis,Parada,36.7445986358277,-4.41857154739277,,http://www.emtmalaga.es/emt-mobile/informacionParada.html?codParada=2610,,,Europe/Madrid
889,2612,Jerez Perchet - Cortijo Bazán,Parada,36.7459289095596,-4.41766915228097,,http://www.emtmalaga.es/emt-mobile/informacionParada.html?codParada=2612,,,Europe/Madrid
890,2613,Málaga Oloroso,Parada,36.7453666752652,-4.41551393483801,,http://www.emtmalaga.es/emt-mobile/informacionParada.html?codParada=2613,,,Europe/Madrid
891,2614,Lagrima,Parada,36.7456532316566,-4.41458166521247,,http://www.emtmalaga.es/emt-mobile/informacionParada.html?codParada=2614,,,Europe/Madrid
892,2615,Lagrima - Arroyo Quintana,Parada,36.7462846462907,-4.41632813760336,,http://www.emtmalaga.es/emt-mobile/informacionParada.html?codParada=2615,,,Europe/Madrid
893,2617,Jardín de Málaga,Parada,36.7498785791179,-4.41683109570889,,http://www.emtmalaga.es/emt-mobile/informacionParada.html?codParada=2617,,,Europe/Madrid
894,2618,Marqués de Mantua,Parada,36.7502794127096,-4.41791701475797,,http://www.emtmalaga.es/emt-mobile/informacionParada.html?codParada=2618,,,Europe/Madrid
895,2619,Vial de Conexión,Parada,36.7524201870078,-4.41893935205549,,http://www.emtmalaga.es/emt-mobile/informacionParada.html?codParada=2619,,,Europe/Madrid
896,2620,Mariano Benlliure,Parada,36.7504606560921,-4.41965565288365,,http://www.emtmalaga.es/emt-mobile/informacionParada.html?codParada=2620,,,Europe/Madrid
897,2621,Sancho de Miranda,Parada,36.74826322928,-4.41911303643451,,http://www.emtmalaga.es/emt-mobile/informacionParada.html?codParada=2621,,,Europe/Madrid
898,2622,Pasaje A. Nicolás Maroto,Parada,36.7488892464052,-4.42012738765789,,http://www.emtmalaga.es/emt-mobile/informacionParada.html?codParada=2622,,,Europe/Madrid
899,2626,Hacienda Los Montes,Parada,36.7480134858756,-4.41756985200387,,http://www.emtmalaga.es/emt-mobile/informacionParada.html?codParada=2626,,,Europe/Madrid
900,2627,San Juan Bosco - Las Flores,Parada,36.73544833236,-4.42277359269372,,http://www.emtmalaga.es/emt-mobile/informacionParada.html?codParada=2627,,,Europe/Madrid
5836,2628,Pastora Imperio,Parada,36.7549775286596,-4.42014098169429,,http://www.emtmalaga.es/emt-mobile/informacionParada.html?codParada=2628,,,Europe/Madrid
5837,2629,Pepa Flores Marisol,Parada,36.7544639181439,-4.41878512503712,,http://www.emtmalaga.es/emt-mobile/informacionParada.html?codParada=2629,,,Europe/Madrid
6099,2630,Emilio Thuiller - Mercado,Parada,36.7464176208871,-4.42173153164027,,http://www.emtmalaga.es/emt-mobile/informacionParada.html?codParada=2630,,,Europe/Madrid
901,2651,Alegría de la Huerta,Parada,36.7513096161734,-4.41993117422047,,http://www.emtmalaga.es/emt-mobile/informacionParada.html?codParada=2651,,,Europe/Madrid
902,2652,Quintanar de la Orden,Parada,36.7513788108961,-4.42188945572863,,http://www.emtmalaga.es/emt-mobile/informacionParada.html?codParada=2652,,,Europe/Madrid
905,2655,Emilio Thuiller - Jardín de Málaga,Parada,36.7488791616311,-4.42184873541701,,http://www.emtmalaga.es/emt-mobile/informacionParada.html?codParada=2655,,,Europe/Madrid
906,2657,Alcalde Nicolás Maroto,Parada,36.7491849139928,-4.41816419461829,,http://www.emtmalaga.es/emt-mobile/informacionParada.html?codParada=2657,,,Europe/Madrid
907,2667,Emilio Thuiller,Parada,36.744732314419,-4.42207290937551,,http://www.emtmalaga.es/emt-mobile/informacionParada.html?codParada=2667,,,Europe/Madrid
908,2668,Emilio Thuiller - La Fuente,Parada,36.7427315751402,-4.42239682096548,,http://www.emtmalaga.es/emt-mobile/informacionParada.html?codParada=2668,,,Europe/Madrid
909,2669,María Tubau,Parada,36.7403353209954,-4.42276261797614,,http://www.emtmalaga.es/emt-mobile/informacionParada.html?codParada=2669,,,Europe/Madrid
910,2670,Lorenza Correa,Parada,36.7381317333953,-4.42296833160965,,http://www.emtmalaga.es/emt-mobile/informacionParada.html?codParada=2670,,,Europe/Madrid
911,2671,Fray Domingo Pimentel,Parada,36.7329653797609,-4.42460591694665,,http://www.emtmalaga.es/emt-mobile/informacionParada.html?codParada=2671,,,Europe/Madrid
912,2701,Avda. M. Agustín Heredia,Parada,36.7150816592011,-4.42239039158535,,http://www.emtmalaga.es/emt-mobile/informacionParada.html?codParada=2701,,,Europe/Madrid
913,2702,Avda. Virgen de Belén,Parada,36.6939324845359,-4.45481318282922,,http://www.emtmalaga.es/emt-mobile/informacionParada.html?codParada=2702,,,Europe/Madrid
915,2704,Herman Hesse,Parada,36.6908296036546,-4.46676915277413,,http://www.emtmalaga.es/emt-mobile/informacionParada.html?codParada=2704,,,Europe/Madrid
916,2705,Gerald Brenan - Hermanas Bronte,Parada,36.6887573004471,-4.472232873686,,http://www.emtmalaga.es/emt-mobile/informacionParada.html?codParada=2705,,,Europe/Madrid
917,2706,Gerald Brenan,Parada,36.6913317682784,-4.47797652674088,,http://www.emtmalaga.es/emt-mobile/informacionParada.html?codParada=2706,,,Europe/Madrid
918,2707,Cesar Vallejo - Pista de Tráfico,Parada,36.6936417329508,-4.48239628116037,,http://www.emtmalaga.es/emt-mobile/informacionParada.html?codParada=2707,,,Europe/Madrid
919,2708,Carlo Goldoni,Parada,36.6974107704498,-4.48819252962777,,http://www.emtmalaga.es/emt-mobile/informacionParada.html?codParada=2708,,,Europe/Madrid
921,2711,Av Isaac Peral - Leo Delibes,Parada,36.6933886453573,-4.45877403461613,,http://www.emtmalaga.es/emt-mobile/informacionParada.html?codParada=2711,,,Europe/Madrid
922,2712,Horacio Quiroga - Parque Mª Luisa,Parada,36.6957527097763,-4.45887526536721,,http://www.emtmalaga.es/emt-mobile/informacionParada.html?codParada=2712,,,Europe/Madrid
923,2750,Sta. Teresa,Parada,36.6974387340813,-4.49507567957111,,http://www.emtmalaga.es/emt-mobile/informacionParada.html?codParada=2750,,,Europe/Madrid
924,2752,Cesar Vallejo,Parada,36.6953413672536,-4.48867678645054,,http://www.emtmalaga.es/emt-mobile/informacionParada.html?codParada=2752,,,Europe/Madrid
925,2753,Cesar Vallejo - Pista de Tráfico,Parada,36.6939926023646,-4.48316637430467,,http://www.emtmalaga.es/emt-mobile/informacionParada.html?codParada=2753,,,Europe/Madrid
926,2754,Salazar Chapela,Parada,36.692947798469,-4.47723043026901,,http://www.emtmalaga.es/emt-mobile/informacionParada.html?codParada=2754,,,Europe/Madrid
928,2758,Horacio Quiroga - Parque Mª Luisa,Parada,36.6959432989964,-4.45892817211687,,http://www.emtmalaga.es/emt-mobile/informacionParada.html?codParada=2758,,,Europe/Madrid
929,2759,Avda. Isaac Peral,Parada,36.6938408205705,-4.45797618070324,,http://www.emtmalaga.es/emt-mobile/informacionParada.html?codParada=2759,,,Europe/Madrid
930,2760,Avda. Virgen de Belén,Parada,36.6939493885382,-4.45529895064227,,http://www.emtmalaga.es/emt-mobile/informacionParada.html?codParada=2760,,,Europe/Madrid
931,2761,Hermanas Bronte - Esteban Salazar Chapela,Parada,36.691152609292,-4.4708168517942,,http://www.emtmalaga.es/emt-mobile/informacionParada.html?codParada=2761,,,Europe/Madrid
932,2762,Herman Hesse,Parada,36.6928674786675,-4.46535233675193,,http://www.emtmalaga.es/emt-mobile/informacionParada.html?codParada=2762,,,Europe/Madrid
933,2801,Rotonda de Santa Águeda,Parada,36.7040088780247,-4.54450761221528,,http://www.emtmalaga.es/emt-mobile/informacionParada.html?codParada=2801,,,Europe/Madrid
934,2802,Portales de la Victoria,Parada,36.7062357864376,-4.54453767519043,,http://www.emtmalaga.es/emt-mobile/informacionParada.html?codParada=2802,,,Europe/Madrid
935,2803,Castañetas,Parada,36.7081301047831,-4.5488066955601,,http://www.emtmalaga.es/emt-mobile/informacionParada.html?codParada=2803,,,Europe/Madrid
936,2804,Castañetas - Campo de Fútbol,Parada,36.7107207770524,-4.54873267636226,,http://www.emtmalaga.es/emt-mobile/informacionParada.html?codParada=2804,,,Europe/Madrid
937,2805,Las Manceras - C/ Niel,Parada,36.7188123925896,-4.54832712616526,,http://www.emtmalaga.es/emt-mobile/informacionParada.html?codParada=2805,,,Europe/Madrid
938,2806,Las Manceras,Parada,36.7212563098669,-4.54814950389299,,http://www.emtmalaga.es/emt-mobile/informacionParada.html?codParada=2806,,,Europe/Madrid
939,2807,Jacob - El Roquero,Parada,36.7259131569222,-4.54910511724867,,http://www.emtmalaga.es/emt-mobile/informacionParada.html?codParada=2807,,,Europe/Madrid
940,2809,Huertecilla de Mañas,Parada,36.725948057691,-4.5337360073691,,http://www.emtmalaga.es/emt-mobile/informacionParada.html?codParada=2809,,,Europe/Madrid
941,2810,Huertecilla de Mañas - C/ Bauxita,Parada,36.7276532758155,-4.53427081199894,,http://www.emtmalaga.es/emt-mobile/informacionParada.html?codParada=2810,,,Europe/Madrid
942,2811,Colmenarejo,Parada,36.7329671471899,-4.5320279825875,,http://www.emtmalaga.es/emt-mobile/informacionParada.html?codParada=2811,,,Europe/Madrid
943,2812,Fresneda - Somera,Parada,36.7410418035017,-4.53897614408481,,http://www.emtmalaga.es/emt-mobile/informacionParada.html?codParada=2812,,,Europe/Madrid
944,2813,Fresneda - Betania,Parada,36.7543341952617,-4.5318251855975,,http://www.emtmalaga.es/emt-mobile/informacionParada.html?codParada=2813,,,Europe/Madrid
945,2814,Casillas del Carpintero,Parada,36.7656762903856,-4.52073817145139,,http://www.emtmalaga.es/emt-mobile/informacionParada.html?codParada=2814,,,Europe/Madrid
946,2815,Ventorrillo de las Cruces,Parada,36.7721324067253,-4.51293394711915,,http://www.emtmalaga.es/emt-mobile/informacionParada.html?codParada=2815,,,Europe/Madrid
947,2816,Pasaje Viola,Parada,36.7234233034087,-4.54888611354408,,http://www.emtmalaga.es/emt-mobile/informacionParada.html?codParada=2816,,,Europe/Madrid
948,2817,Pilar del Prado - Oliveros,Parada,36.7210426655906,-4.53411069025501,,http://www.emtmalaga.es/emt-mobile/informacionParada.html?codParada=2817,,,Europe/Madrid
949,2818,Colmenarejo - C/ Ágata,Parada,36.7344357401976,-4.53175617959002,,http://www.emtmalaga.es/emt-mobile/informacionParada.html?codParada=2818,,,Europe/Madrid
950,2819,Camino del Rayo - La Caraña,Parada,36.7382284256065,-4.53353334525733,,http://www.emtmalaga.es/emt-mobile/informacionParada.html?codParada=2819,,,Europe/Madrid
951,2820,El Rayo,Parada,36.7376308740152,-4.53827423301794,,http://www.emtmalaga.es/emt-mobile/informacionParada.html?codParada=2820,,,Europe/Madrid
952,2821,Somera,Parada,36.7445042350354,-4.53778833757017,,http://www.emtmalaga.es/emt-mobile/informacionParada.html?codParada=2821,,,Europe/Madrid
953,2822,Fresneda - Los Florido,Parada,36.7520078929287,-4.53321833091222,,http://www.emtmalaga.es/emt-mobile/informacionParada.html?codParada=2822,,,Europe/Madrid
954,2823,La Ventolera,Parada,36.7557212937343,-4.53081840062616,,http://www.emtmalaga.es/emt-mobile/informacionParada.html?codParada=2823,,,Europe/Madrid
955,2824,La Perla,Parada,36.7605491792291,-4.52608448606521,,http://www.emtmalaga.es/emt-mobile/informacionParada.html?codParada=2824,,,Europe/Madrid
956,2825,Fresneda - La Perla,Parada,36.7632225540785,-4.52390389111837,,http://www.emtmalaga.es/emt-mobile/informacionParada.html?codParada=2825,,,Europe/Madrid
957,2826,Carril de Olmedo - Los Curritos,Parada,36.7665371463235,-4.51870809367554,,http://www.emtmalaga.es/emt-mobile/informacionParada.html?codParada=2826,,,Europe/Madrid
958,2827,Jacob,Parada,36.7281438435118,-4.54889258776597,,http://www.emtmalaga.es/emt-mobile/informacionParada.html?codParada=2827,,,Europe/Madrid
959,2828,Bratislava,Parada,36.7226484936055,-4.54348534476389,,http://www.emtmalaga.es/emt-mobile/informacionParada.html?codParada=2828,,,Europe/Madrid
960,2829,Praga,Parada,36.7235521408915,-4.54554710268781,,http://www.emtmalaga.es/emt-mobile/informacionParada.html?codParada=2829,,,Europe/Madrid
961,2851,Bda. Los Nuñez,Parada,36.7800300544653,-4.51575651569922,,http://www.emtmalaga.es/emt-mobile/informacionParada.html?codParada=2851,,,Europe/Madrid
962,2852,Ventorrillo de las Cruces,Parada,36.7719326043111,-4.51355253680068,,http://www.emtmalaga.es/emt-mobile/informacionParada.html?codParada=2852,,,Europe/Madrid
963,2853,Casillas del Carpintero,Parada,36.7657212025552,-4.52089993272135,,http://www.emtmalaga.es/emt-mobile/informacionParada.html?codParada=2853,,,Europe/Madrid
964,2854,Fresneda - Betania,Parada,36.7546323935077,-4.53173549594792,,http://www.emtmalaga.es/emt-mobile/informacionParada.html?codParada=2854,,,Europe/Madrid
965,2855,Fresneda - Somera,Parada,36.7410457151891,-4.53908209194331,,http://www.emtmalaga.es/emt-mobile/informacionParada.html?codParada=2855,,,Europe/Madrid
966,2856,Colmenarejo,Parada,36.7325479805386,-4.53424094002041,,http://www.emtmalaga.es/emt-mobile/informacionParada.html?codParada=2856,,,Europe/Madrid
967,2857,Huertecilla de Mañas - C/ Bauxita,Parada,36.727698243189,-4.53448845666662,,http://www.emtmalaga.es/emt-mobile/informacionParada.html?codParada=2857,,,Europe/Madrid
968,2858,Huertecilla de Mañas,Parada,36.7258767133871,-4.53386671728156,,http://www.emtmalaga.es/emt-mobile/informacionParada.html?codParada=2858,,,Europe/Madrid
969,2859,Pilar del Prado - Oliveros,Parada,36.7208911580691,-4.53385556318119,,http://www.emtmalaga.es/emt-mobile/informacionParada.html?codParada=2859,,,Europe/Madrid
970,2860,Jacob,Parada,36.728178674056,-4.54902478518607,,http://www.emtmalaga.es/emt-mobile/informacionParada.html?codParada=2860,,,Europe/Madrid
971,2861,Las Manceras,Parada,36.7212245309304,-4.54827944599176,,http://www.emtmalaga.es/emt-mobile/informacionParada.html?codParada=2861,,,Europe/Madrid
972,2862,Las Manceras - C/ Niel,Parada,36.7186876556736,-4.54843469674556,,http://www.emtmalaga.es/emt-mobile/informacionParada.html?codParada=2862,,,Europe/Madrid
973,2863,Castañetas - Campo de Fútbol,Parada,36.710792310193,-4.54888724373195,,http://www.emtmalaga.es/emt-mobile/informacionParada.html?codParada=2863,,,Europe/Madrid
974,2864,Castañetas,Parada,36.7082038517977,-4.54887772580903,,http://www.emtmalaga.es/emt-mobile/informacionParada.html?codParada=2864,,,Europe/Madrid
975,2865,Portales de la Victoria,Parada,36.7061535296423,-4.54455192656758,,http://www.emtmalaga.es/emt-mobile/informacionParada.html?codParada=2865,,,Europe/Madrid
976,2866,Carril de Olmedo - Los Curritos,Parada,36.7664549448807,-4.51899288752382,,http://www.emtmalaga.es/emt-mobile/informacionParada.html?codParada=2866,,,Europe/Madrid
977,2867,Fresneda - La Perla,Parada,36.763263254481,-4.52399655050953,,http://www.emtmalaga.es/emt-mobile/informacionParada.html?codParada=2867,,,Europe/Madrid
978,2868,La Perla,Parada,36.7606456667588,-4.52611095353609,,http://www.emtmalaga.es/emt-mobile/informacionParada.html?codParada=2868,,,Europe/Madrid
979,2869,La Ventolera,Parada,36.7557327664318,-4.53096214653544,,http://www.emtmalaga.es/emt-mobile/informacionParada.html?codParada=2869,,,Europe/Madrid
980,2870,Fresneda - Los Florido,Parada,36.752363997794,-4.53310133374602,,http://www.emtmalaga.es/emt-mobile/informacionParada.html?codParada=2870,,,Europe/Madrid
981,2871,Somera,Parada,36.7444784775309,-4.53790377618624,,http://www.emtmalaga.es/emt-mobile/informacionParada.html?codParada=2871,,,Europe/Madrid
982,2872,El Rayo,Parada,36.7374824755415,-4.53796135843766,,http://www.emtmalaga.es/emt-mobile/informacionParada.html?codParada=2872,,,Europe/Madrid
983,2873,Camino del Rayo - La Caraña,Parada,36.7382607179972,-4.53331197122875,,http://www.emtmalaga.es/emt-mobile/informacionParada.html?codParada=2873,,,Europe/Madrid
984,2874,Colmenarejo - C/ Ágata,Parada,36.7345001396424,-4.53186299086273,,http://www.emtmalaga.es/emt-mobile/informacionParada.html?codParada=2874,,,Europe/Madrid
985,2876,Pasaje Viola,Parada,36.7229969975146,-4.54904626333714,,http://www.emtmalaga.es/emt-mobile/informacionParada.html?codParada=2876,,,Europe/Madrid
986,2877,Jacob - El Roquero,Parada,36.7260022754754,-4.5491765788743,,http://www.emtmalaga.es/emt-mobile/informacionParada.html?codParada=2877,,,Europe/Madrid
987,2878,Bratislava,Parada,36.722690275636,-4.54359911893988,,http://www.emtmalaga.es/emt-mobile/informacionParada.html?codParada=2878,,,Europe/Madrid
988,2879,Praga,Parada,36.7234942959627,-4.54594077887881,,http://www.emtmalaga.es/emt-mobile/informacionParada.html?codParada=2879,,,Europe/Madrid
989,2901,Jarazmín,Parada,36.7274011194126,-4.33577227570503,,http://www.emtmalaga.es/emt-mobile/informacionParada.html?codParada=2901,,,Europe/Madrid
990,2902,Camino de Jarazmín,Parada,36.7246546468331,-4.3365854493066,,http://www.emtmalaga.es/emt-mobile/informacionParada.html?codParada=2902,,,Europe/Madrid
991,2903,Camino de Jarazmín,Parada,36.7239978737978,-4.33667395937487,,http://www.emtmalaga.es/emt-mobile/informacionParada.html?codParada=2903,,,Europe/Madrid
992,2904,Camino Viejo de Vélez,Parada,36.7215802886713,-4.34010380882893,,http://www.emtmalaga.es/emt-mobile/informacionParada.html?codParada=2904,,,Europe/Madrid
993,2905,Camino Viejo de Vélez,Parada,36.7220264713463,-4.34203561369159,,http://www.emtmalaga.es/emt-mobile/informacionParada.html?codParada=2905,,,Europe/Madrid
994,2906,Camino Viejo de Vélez - Instituto,Parada,36.7224901490662,-4.34510570401812,,http://www.emtmalaga.es/emt-mobile/informacionParada.html?codParada=2906,,,Europe/Madrid
995,2907,Carretera de Olías - Fuente,Parada,36.7238455707612,-4.34567004786011,,http://www.emtmalaga.es/emt-mobile/informacionParada.html?codParada=2907,,,Europe/Madrid
996,2909,Carretera de Olías - Podadera,Parada,36.7272628905753,-4.34307364711363,,http://www.emtmalaga.es/emt-mobile/informacionParada.html?codParada=2909,,,Europe/Madrid
997,2910,Carretera de Olías - Ventas,Parada,36.7302196858991,-4.33986886528185,,http://www.emtmalaga.es/emt-mobile/informacionParada.html?codParada=2910,,,Europe/Madrid
1000,2913,Villafuerte,Parada,36.7243236087447,-4.35899592406532,,http://www.emtmalaga.es/emt-mobile/informacionParada.html?codParada=2913,,,Europe/Madrid
1001,2914,Reina Fabiola - Colegio,Parada,36.7277378900013,-4.35635820033547,,http://www.emtmalaga.es/emt-mobile/informacionParada.html?codParada=2914,,,Europe/Madrid
1002,2915,Reina Fabiola - Subestación,Parada,36.7275639498771,-4.35761148198996,,http://www.emtmalaga.es/emt-mobile/informacionParada.html?codParada=2915,,,Europe/Madrid
1003,2916,Reina Fabiola,Parada,36.7271813970941,-4.36249551646285,,http://www.emtmalaga.es/emt-mobile/informacionParada.html?codParada=2916,,,Europe/Madrid
1004,2917,Avda. San Isidro,Parada,36.7270925050662,-4.36459007275766,,http://www.emtmalaga.es/emt-mobile/informacionParada.html?codParada=2917,,,Europe/Madrid
1005,2921,Cmno. Viejo de Velez - Ctra. Olias,Parada,36.722127589899,-4.3473211738292,,http://www.emtmalaga.es/emt-mobile/informacionParada.html?codParada=2921,,,Europe/Madrid
1007,2923,Fernandez Shaw - Juan Sebastian Elcano,Parada,36.7225798783191,-4.37383126436447,,http://www.emtmalaga.es/emt-mobile/informacionParada.html?codParada=2923,,,Europe/Madrid
1008,2924,Cesar Riario,Parada,36.7219414544838,-4.3769690387484,,http://www.emtmalaga.es/emt-mobile/informacionParada.html?codParada=2924,,,Europe/Madrid
1009,2925,Manuel del Palacio - Arroyo Jaboneros,Parada,36.725504065255,-4.36659557715905,,http://www.emtmalaga.es/emt-mobile/informacionParada.html?codParada=2925,,,Europe/Madrid
1010,2926,Algarrobo,Parada,36.721492190513,-4.35087581396037,,http://www.emtmalaga.es/emt-mobile/informacionParada.html?codParada=2926,,,Europe/Madrid
1011,2927,Algarrobo - Potosi,Parada,36.7225947101598,-4.35065730535809,,http://www.emtmalaga.es/emt-mobile/informacionParada.html?codParada=2927,,,Europe/Madrid
1012,2928,Carmen Amaya,Parada,36.7251649893934,-4.3515473983234,,http://www.emtmalaga.es/emt-mobile/informacionParada.html?codParada=2928,,,Europe/Madrid
1013,2929,Idumea,Parada,36.7221321521441,-4.35293789122639,,http://www.emtmalaga.es/emt-mobile/informacionParada.html?codParada=2929,,,Europe/Madrid
1014,2930,Villafuerte - J. S. Elcano,Parada,36.7216849616967,-4.35995524475072,,http://www.emtmalaga.es/emt-mobile/informacionParada.html?codParada=2930,,,Europe/Madrid
1015,2931,Laurel,Parada,36.7281536930758,-4.3743364616131,,http://www.emtmalaga.es/emt-mobile/informacionParada.html?codParada=2931,,,Europe/Madrid
1016,2932,José Fernández Pertierra,Parada,36.7311277404022,-4.37537258923383,,http://www.emtmalaga.es/emt-mobile/informacionParada.html?codParada=2932,,,Europe/Madrid
1017,2933,Pintor Sánchez Cotán,Parada,36.7325294967504,-4.37647707796304,,http://www.emtmalaga.es/emt-mobile/informacionParada.html?codParada=2933,,,Europe/Madrid
1018,2934,Juan García León,Parada,36.729806531175,-4.37694673413174,,http://www.emtmalaga.es/emt-mobile/informacionParada.html?codParada=2934,,,Europe/Madrid
1019,2935,Laurel,Parada,36.7280752667094,-4.37443746658873,,http://www.emtmalaga.es/emt-mobile/informacionParada.html?codParada=2935,,,Europe/Madrid
1020,2936,Arquitecto Francisco de Mora,Parada,36.7258640411215,-4.37484203650603,,http://www.emtmalaga.es/emt-mobile/informacionParada.html?codParada=2936,,,Europe/Madrid
1021,2937,Carretera de Olías - El Palo,Parada,36.7219734482493,-4.3482786900543,,http://www.emtmalaga.es/emt-mobile/informacionParada.html?codParada=2937,,,Europe/Madrid
3508,2938,La Mosca - C. Conservación,Parada,36.7334828558446,-4.37613630763808,,http://www.emtmalaga.es/emt-mobile/informacionParada.html?codParada=2938,,,Europe/Madrid
3509,2939,Fernández Shaw - Castañer Gallardo,Parada,36.7281759477214,-4.37201138605358,,http://www.emtmalaga.es/emt-mobile/informacionParada.html?codParada=2939,,,Europe/Madrid
1022,2953,Camino de San Antón,Parada,36.7255313259635,-4.36515737484741,,http://www.emtmalaga.es/emt-mobile/informacionParada.html?codParada=2953,,,Europe/Madrid
1024,2964,Camino Viejo de Vélez - Instituto,Parada,36.722491199795,-4.34488671107518,,http://www.emtmalaga.es/emt-mobile/informacionParada.html?codParada=2964,,,Europe/Madrid
1025,2965,Camino Viejo de Vélez,Parada,36.7214882795762,-4.34013838440507,,http://www.emtmalaga.es/emt-mobile/informacionParada.html?codParada=2965,,,Europe/Madrid
1026,2966,Camino de Jarazmín,Parada,36.7238469479208,-4.33655054343785,,http://www.emtmalaga.es/emt-mobile/informacionParada.html?codParada=2966,,,Europe/Madrid
1027,2967,Camino de Jarazmín,Parada,36.724986459296,-4.33654595514655,,http://www.emtmalaga.es/emt-mobile/informacionParada.html?codParada=2967,,,Europe/Madrid
1028,2968,Camino Viejo de Vélez,Parada,36.7219214096788,-4.3418567080059,,http://www.emtmalaga.es/emt-mobile/informacionParada.html?codParada=2968,,,Europe/Madrid
1029,2969,José María Alonso - Pablo Sarasate,Parada,36.7301117027917,-4.35811122820667,,http://www.emtmalaga.es/emt-mobile/informacionParada.html?codParada=2969,,,Europe/Madrid
1030,2970,José María Alonso - Residencia,Parada,36.7313085327858,-4.35943122421651,,http://www.emtmalaga.es/emt-mobile/informacionParada.html?codParada=2970,,,Europe/Madrid
1031,2971,José María Alonso - Francisco Rabal,Parada,36.7322486696233,-4.35695281424174,,http://www.emtmalaga.es/emt-mobile/informacionParada.html?codParada=2971,,,Europe/Madrid
1032,2972,Leoni Banabu,Parada,36.733438461318,-4.35607419073691,,http://www.emtmalaga.es/emt-mobile/informacionParada.html?codParada=2972,,,Europe/Madrid
1033,2973,Leoni Banabu - Camilo José Cela,Parada,36.734139346464,-4.35742433826041,,http://www.emtmalaga.es/emt-mobile/informacionParada.html?codParada=2973,,,Europe/Madrid
1034,2974,Magnolios - Adolfo Marsillach,Parada,36.7333377230982,-4.36002467277317,,http://www.emtmalaga.es/emt-mobile/informacionParada.html?codParada=2974,,,Europe/Madrid
1035,2975,Magnolios - Tulipanes,Parada,36.7338665593548,-4.36133276519865,,http://www.emtmalaga.es/emt-mobile/informacionParada.html?codParada=2975,,,Europe/Madrid
1036,2976,Avda. San Antón - Cedros,Parada,36.7350507247215,-4.36141070366724,,http://www.emtmalaga.es/emt-mobile/informacionParada.html?codParada=2976,,,Europe/Madrid
1037,2977,Avda. San Antón - Almendros,Parada,36.7314184094199,-4.3616108894871,,http://www.emtmalaga.es/emt-mobile/informacionParada.html?codParada=2977,,,Europe/Madrid
1038,2978,Arquitecto Alonso Carrbonell,Parada,36.7268872618719,-4.37419165997084,,http://www.emtmalaga.es/emt-mobile/informacionParada.html?codParada=2978,,,Europe/Madrid
1041,3003,Manuel Laguna,Parada,36.7397373260849,-4.41872341376449,,http://www.emtmalaga.es/emt-mobile/informacionParada.html?codParada=3003,,,Europe/Madrid
1042,3004,Manuel Laguna - Solitario,Parada,36.7405012826186,-4.41762913479501,,http://www.emtmalaga.es/emt-mobile/informacionParada.html?codParada=3004,,,Europe/Madrid
1043,3006,Francisco Lopez - Arroyo Aceiteros,Parada,36.7440947669675,-4.41465689705523,,http://www.emtmalaga.es/emt-mobile/informacionParada.html?codParada=3006,,,Europe/Madrid
2355,3007,Av. Postas - Sinaí,Parada,36.7381052534088,-4.41989789943821,,http://www.emtmalaga.es/emt-mobile/informacionParada.html?codParada=3007,,,Europe/Madrid
2356,3008,Av. Postas - Colegio Salvador Rueda,Parada,36.7385514773858,-4.41924895444348,,http://www.emtmalaga.es/emt-mobile/informacionParada.html?codParada=3008,,,Europe/Madrid
2357,3009,Av. de la Cibeles - Moisés,Parada,36.7388836711056,-4.41965978984519,,http://www.emtmalaga.es/emt-mobile/informacionParada.html?codParada=3009,,,Europe/Madrid
2358,3010,Av. de la Cibeles - Monte Tabor,Parada,36.739171784385,-4.42092692039611,,http://www.emtmalaga.es/emt-mobile/informacionParada.html?codParada=3010,,,Europe/Madrid
2359,3011,Av. Ntra. Sra. de las Guías - Donato Jiménez,Parada,36.7393390067859,-4.42140551562053,,http://www.emtmalaga.es/emt-mobile/informacionParada.html?codParada=3011,,,Europe/Madrid
1044,3051,Morritos Altos,Parada,36.7422322612786,-4.41636240736703,,http://www.emtmalaga.es/emt-mobile/informacionParada.html?codParada=3051,,,Europe/Madrid
1045,3052,Francisco López López,Parada,36.7430826271337,-4.41701042755832,,http://www.emtmalaga.es/emt-mobile/informacionParada.html?codParada=3052,,,Europe/Madrid
1046,3053,Las Yucas,Parada,36.742152357569,-4.41873387700642,,http://www.emtmalaga.es/emt-mobile/informacionParada.html?codParada=3053,,,Europe/Madrid
1047,3054,Los Ficus,Parada,36.7435271853325,-4.41947760979211,,http://www.emtmalaga.es/emt-mobile/informacionParada.html?codParada=3054,,,Europe/Madrid
1048,3055,Aguacates,Parada,36.7426001787263,-4.42109847906074,,http://www.emtmalaga.es/emt-mobile/informacionParada.html?codParada=3055,,,Europe/Madrid
1052,3105,Avda. Herrera Oria - Puente,Parada,36.7183455746643,-4.43914483629008,,http://www.emtmalaga.es/emt-mobile/informacionParada.html?codParada=3105,,,Europe/Madrid
1055,3111,Avda. Herrera Oria - Polideportivo,Parada,36.7190933212215,-4.44830108955633,,http://www.emtmalaga.es/emt-mobile/informacionParada.html?codParada=3111,,,Europe/Madrid
1057,3115,Villanueva de Algaidas - Instituto,Parada,36.6864511919946,-4.45545919880027,,http://www.emtmalaga.es/emt-mobile/informacionParada.html?codParada=3115,,,Europe/Madrid
1058,3116,Montejaque,Parada,36.6861981001738,-4.45803929641094,,http://www.emtmalaga.es/emt-mobile/informacionParada.html?codParada=3116,,,Europe/Madrid
1059,3117,Palacio de los Deportes,Parada,36.6849271408892,-4.45803955890484,,http://www.emtmalaga.es/emt-mobile/informacionParada.html?codParada=3117,,,Europe/Madrid
1060,3118,Av. Moliere - Av. Velázquez,Parada,36.6900243456379,-4.45635351178724,,http://www.emtmalaga.es/emt-mobile/informacionParada.html?codParada=3118,,,Europe/Madrid
1061,3120,Av. Moliere - Camino del Pato,Parada,36.6873622139195,-4.45344699557158,,http://www.emtmalaga.es/emt-mobile/informacionParada.html?codParada=3120,,,Europe/Madrid
1062,3121,Almogía - Nicolás Isidro,Parada,36.7150640604601,-4.45383843322109,,http://www.emtmalaga.es/emt-mobile/informacionParada.html?codParada=3121,,,Europe/Madrid
3957,3124,Paseo del Parque - Ayuntamiento,Parada,36.7199835355381,-4.41473416439398,,http://www.emtmalaga.es/emt-mobile/informacionParada.html?codParada=3124,,,Europe/Madrid
1065,3151,Villanueva del Rosario - Mainake,Parada,36.6866448128789,-4.45736988953622,,http://www.emtmalaga.es/emt-mobile/informacionParada.html?codParada=3151,,,Europe/Madrid
1066,3152,Villanueva de Algaidas - Instituto,Parada,36.6863100898705,-4.45545739109933,,http://www.emtmalaga.es/emt-mobile/informacionParada.html?codParada=3152,,,Europe/Madrid
1069,3159,Avda. Herrera Oria,Parada,36.7183377854097,-4.44136532932407,,http://www.emtmalaga.es/emt-mobile/informacionParada.html?codParada=3159,,,Europe/Madrid
1070,3160,Avda. Herrera Oria - Puente,Parada,36.718113880436,-4.43882628412838,,http://www.emtmalaga.es/emt-mobile/informacionParada.html?codParada=3160,,,Europe/Madrid
1071,3161,Avda. de la Aurora - Ministerios,Parada,36.7159933794317,-4.43716947499144,,http://www.emtmalaga.es/emt-mobile/informacionParada.html?codParada=3161,,,Europe/Madrid
1074,3164,Av. Moliere - Camino del Pato,Parada,36.6874718369002,-4.4531857689075,,http://www.emtmalaga.es/emt-mobile/informacionParada.html?codParada=3164,,,Europe/Madrid
1075,3165,Av. Moliere - Avda. Velazquez,Parada,36.6897835166847,-4.45569601109857,,http://www.emtmalaga.es/emt-mobile/informacionParada.html?codParada=3165,,,Europe/Madrid
3298,3169,Almogia - Nicolas Isidro,Parada,36.7151947896036,-4.45356919761328,,http://www.emtmalaga.es/emt-mobile/informacionParada.html?codParada=3169,,,Europe/Madrid
1079,3202,Paseo Miramar - San Vicente Paúl,Parada,36.7255499166517,-4.39694984123038,,http://www.emtmalaga.es/emt-mobile/informacionParada.html?codParada=3202,,,Europe/Madrid
1080,3203,Paseo Miramar - Santa Paula,Parada,36.726461811754,-4.39676441567374,,http://www.emtmalaga.es/emt-mobile/informacionParada.html?codParada=3203,,,Europe/Madrid
1081,3204,Paseo de Miramar - Goethe,Parada,36.727995825018,-4.39646349978145,,http://www.emtmalaga.es/emt-mobile/informacionParada.html?codParada=3204,,,Europe/Madrid
1082,3205,Avda. Mayorazgo - Hacienda Miramar,Parada,36.7299721036304,-4.39611264692416,,http://www.emtmalaga.es/emt-mobile/informacionParada.html?codParada=3205,,,Europe/Madrid
1083,3206,Avda. Mayorazgo,Parada,36.7314807138834,-4.39702455193611,,http://www.emtmalaga.es/emt-mobile/informacionParada.html?codParada=3206,,,Europe/Madrid
1084,3207,Paseo Miramar,Parada,36.7237651129666,-4.39678227513721,,http://www.emtmalaga.es/emt-mobile/informacionParada.html?codParada=3207,,,Europe/Madrid
1085,3208,Avda. Andalucía,Parada,36.716605935227,-4.42821856723288,,http://www.emtmalaga.es/emt-mobile/informacionParada.html?codParada=3208,,,Europe/Madrid
5062,3210,Arrigo Boito,Parada,36.7342412640189,-4.40044015647803,,http://www.emtmalaga.es/emt-mobile/informacionParada.html?codParada=3210,,,Europe/Madrid
5063,3211,Camarón Isla - Julian Sesmero,Parada,36.7370550015755,-4.40144866706772,,http://www.emtmalaga.es/emt-mobile/informacionParada.html?codParada=3211,,,Europe/Madrid
5064,3212,Camaron de la Isla,Parada,36.7368282297569,-4.40340936185779,,http://www.emtmalaga.es/emt-mobile/informacionParada.html?codParada=3212,,,Europe/Madrid
5065,3213,Era - Bombarelly,Parada,36.7349925355897,-4.40570533277475,,http://www.emtmalaga.es/emt-mobile/informacionParada.html?codParada=3213,,,Europe/Madrid
1087,3251,El Mayorazgo - Avda. de las Caballerizas,Parada,36.7320805847114,-4.39793387750809,,http://www.emtmalaga.es/emt-mobile/informacionParada.html?codParada=3251,,,Europe/Madrid
1088,3252,Avda. de las Caballerizas,Parada,36.7296049276871,-4.3974040958203,,http://www.emtmalaga.es/emt-mobile/informacionParada.html?codParada=3252,,,Europe/Madrid
1089,3253,Las Espuelas,Parada,36.729916479948,-4.39937555737019,,http://www.emtmalaga.es/emt-mobile/informacionParada.html?codParada=3253,,,Europe/Madrid
1090,3254,Las Espuelas - De la Era,Parada,36.7327955736949,-4.40041522286278,,http://www.emtmalaga.es/emt-mobile/informacionParada.html?codParada=3254,,,Europe/Madrid
1092,3256,Sierra de Grazalema - Pinos del Limonar,Parada,36.7321535241824,-4.4032811578223,,http://www.emtmalaga.es/emt-mobile/informacionParada.html?codParada=3256,,,Europe/Madrid
1093,3257,Sierra de Grazalema- Sierra del Co,Parada,36.7292297274798,-4.40277464623107,,http://www.emtmalaga.es/emt-mobile/informacionParada.html?codParada=3257,,,Europe/Madrid
1094,3258,Sierra de Grazalema,Parada,36.7268118049962,-4.40247776342849,,http://www.emtmalaga.es/emt-mobile/informacionParada.html?codParada=3258,,,Europe/Madrid
1095,3259,Carril de Castell,Parada,36.7255655177985,-4.40002131128967,,http://www.emtmalaga.es/emt-mobile/informacionParada.html?codParada=3259,,,Europe/Madrid
1096,3261,Paseo del Limonar - Colegio,Parada,36.7248851995644,-4.39872112247636,,http://www.emtmalaga.es/emt-mobile/informacionParada.html?codParada=3261,,,Europe/Madrid
1097,3262,Paseo del Limonar,Parada,36.7229969499121,-4.39876243707404,,http://www.emtmalaga.es/emt-mobile/informacionParada.html?codParada=3262,,,Europe/Madrid
1099,3264,Alameda Principal - Norte,Parada,36.717071806337,-4.42495055164348,,http://www.emtmalaga.es/emt-mobile/informacionParada.html?codParada=3264,,,Europe/Madrid
5856,3265,Av. Camarón - Arboladura,Parada,36.7365818086526,-4.39809510693266,,http://www.emtmalaga.es/emt-mobile/informacionParada.html?codParada=3265,,,Europe/Madrid
1101,3302,Paseo Cerrado Calderón - C. Comercial,Parada,36.7260119291574,-4.38146161581963,,http://www.emtmalaga.es/emt-mobile/informacionParada.html?codParada=3302,,,Europe/Madrid
1102,3303,Flamencos,Parada,36.7265460442555,-4.38345267535087,,http://www.emtmalaga.es/emt-mobile/informacionParada.html?codParada=3303,,,Europe/Madrid
1103,3304,Flamencos - Colegio,Parada,36.727028665478,-4.38417532706313,,http://www.emtmalaga.es/emt-mobile/informacionParada.html?codParada=3304,,,Europe/Madrid
1104,3305,Flamencos - Liceo Francés,Parada,36.7292676323243,-4.38345650898834,,http://www.emtmalaga.es/emt-mobile/informacionParada.html?codParada=3305,,,Europe/Madrid
1105,3306,Flamencos - Conejera,Parada,36.7305850283048,-4.38571202017091,,http://www.emtmalaga.es/emt-mobile/informacionParada.html?codParada=3306,,,Europe/Madrid
1106,3313,Matagallo,Parada,36.7365162300305,-4.38502202605945,,http://www.emtmalaga.es/emt-mobile/informacionParada.html?codParada=3313,,,Europe/Madrid
1107,3314,Olmos,Parada,36.7330818755393,-4.38215050222789,,http://www.emtmalaga.es/emt-mobile/informacionParada.html?codParada=3314,,,Europe/Madrid
1108,3315,Flamencos - Arce,Parada,36.7324606830632,-4.38520371518074,,http://www.emtmalaga.es/emt-mobile/informacionParada.html?codParada=3315,,,Europe/Madrid
1109,3316,Matagallo - Meridiana,Parada,36.7346434812745,-4.38431964266719,,http://www.emtmalaga.es/emt-mobile/informacionParada.html?codParada=3316,,,Europe/Madrid
1110,3318,Matagallo - Macizo Central,Parada,36.7387844556753,-4.38326329964073,,http://www.emtmalaga.es/emt-mobile/informacionParada.html?codParada=3318,,,Europe/Madrid
1111,3319,La Cerrajera,Parada,36.7397020055734,-4.38166443689324,,http://www.emtmalaga.es/emt-mobile/informacionParada.html?codParada=3319,,,Europe/Madrid
1112,3320,La Cerrajera - Rotonda,Parada,36.7380758439142,-4.37938219100522,,http://www.emtmalaga.es/emt-mobile/informacionParada.html?codParada=3320,,,Europe/Madrid
1113,3321,Olmos - Campanario,Parada,36.7344798634166,-4.38189722364083,,http://www.emtmalaga.es/emt-mobile/informacionParada.html?codParada=3321,,,Europe/Madrid
1114,3323,Olmos - Interpares,Parada,36.7316068863691,-4.38156493429545,,http://www.emtmalaga.es/emt-mobile/informacionParada.html?codParada=3323,,,Europe/Madrid
1115,3324,Paseo del Parque - Plaza de la Marina,Parada,36.7185768677729,-4.41889280060022,,http://www.emtmalaga.es/emt-mobile/informacionParada.html?codParada=3324,,,Europe/Madrid
1116,3325,Olmos - Pimienta,Parada,36.7295527726672,-4.38149598040988,,http://www.emtmalaga.es/emt-mobile/informacionParada.html?codParada=3325,,,Europe/Madrid
1117,3326,Olmos - Cueva Pileta,Parada,36.727454799561,-4.38224256677198,,http://www.emtmalaga.es/emt-mobile/informacionParada.html?codParada=3326,,,Europe/Madrid
1118,3327,Avda. Juan Sebastian Elcano - Cerrado Calderón,Parada,36.7220202767565,-4.38256751395835,,http://www.emtmalaga.es/emt-mobile/informacionParada.html?codParada=3327,,,Europe/Madrid
1119,3328,Avda. Andalucía,Parada,36.7166193644422,-4.42854842576351,,http://www.emtmalaga.es/emt-mobile/informacionParada.html?codParada=3328,,,Europe/Madrid
1126,3351,La Unidad - Cerrado Calderón,Parada,36.7260708022133,-4.38081005143336,,http://www.emtmalaga.es/emt-mobile/informacionParada.html?codParada=3351,,,Europe/Madrid
1127,3352,Juan Valera - Pepita Jiménez,Parada,36.724975045927,-4.37941432067015,,http://www.emtmalaga.es/emt-mobile/informacionParada.html?codParada=3352,,,Europe/Madrid
1128,3353,Juan Valera,Parada,36.7239970985235,-4.37791327512381,,http://www.emtmalaga.es/emt-mobile/informacionParada.html?codParada=3353,,,Europe/Madrid
1129,3354,Juan Valera,Parada,36.7240005311025,-4.37642524278832,,http://www.emtmalaga.es/emt-mobile/informacionParada.html?codParada=3354,,,Europe/Madrid
1130,3355,Juan Valera - Costa Rica,Parada,36.7235730272649,-4.37811826512527,,http://www.emtmalaga.es/emt-mobile/informacionParada.html?codParada=3355,,,Europe/Madrid
1131,3356,Juan Valera,Parada,36.7231862349291,-4.37725449748726,,http://www.emtmalaga.es/emt-mobile/informacionParada.html?codParada=3356,,,Europe/Madrid
1134,3402,Ángel Guimerá,Parada,36.721317327953,-4.3716672226248,,http://www.emtmalaga.es/emt-mobile/informacionParada.html?codParada=3402,,,Europe/Madrid
1135,3403,Ricardo León,Parada,36.7230629578417,-4.3716982806669,,http://www.emtmalaga.es/emt-mobile/informacionParada.html?codParada=3403,,,Europe/Madrid
1136,3404,Gabriel y Galán - Ricardo León,Parada,36.7244630340144,-4.37148275729007,,http://www.emtmalaga.es/emt-mobile/informacionParada.html?codParada=3404,,,Europe/Madrid
1137,3405,Gabriel y Galán - Amador de los Ríos,Parada,36.7244401503488,-4.36952095382113,,http://www.emtmalaga.es/emt-mobile/informacionParada.html?codParada=3405,,,Europe/Madrid
1138,3406,Gabriel y Galán - Octavio Picón,Parada,36.7244557728298,-4.36802473773028,,http://www.emtmalaga.es/emt-mobile/informacionParada.html?codParada=3406,,,Europe/Madrid
1139,3408,Amador de los Ríos - San Federico,Parada,36.7267726377509,-4.36947733339338,,http://www.emtmalaga.es/emt-mobile/informacionParada.html?codParada=3408,,,Europe/Madrid
1140,3409,Amador de los Ríos - Eucaliptus,Parada,36.7274621969242,-4.37053687620337,,http://www.emtmalaga.es/emt-mobile/informacionParada.html?codParada=3409,,,Europe/Madrid
1141,3410,Eucaliptos - Bda. La Mosca,Parada,36.7298218334887,-4.37089396193215,,http://www.emtmalaga.es/emt-mobile/informacionParada.html?codParada=3410,,,Europe/Madrid
1142,3411,Eucaliptos - Viaducto,Parada,36.7312386947635,-4.37096452778288,,http://www.emtmalaga.es/emt-mobile/informacionParada.html?codParada=3411,,,Europe/Madrid
1143,3412,Escritor Manuel Solano - Méndez Sotomayor,Parada,36.7336910260676,-4.37203115479013,,http://www.emtmalaga.es/emt-mobile/informacionParada.html?codParada=3412,,,Europe/Madrid
1144,3413,Escritor Manuel Solano - Escritor Fco. José Fernádez,Parada,36.7359463727001,-4.37367629760946,,http://www.emtmalaga.es/emt-mobile/informacionParada.html?codParada=3413,,,Europe/Madrid
1145,3414,Molinillo Hundido,Parada,36.7244628492888,-4.36641703313433,,http://www.emtmalaga.es/emt-mobile/informacionParada.html?codParada=3414,,,Europe/Madrid
1146,3415,Manuel de Palacio - Octavio Picón,Parada,36.7254975368658,-4.36817968886993,,http://www.emtmalaga.es/emt-mobile/informacionParada.html?codParada=3415,,,Europe/Madrid
1147,3451,Escritor Manuel Solano - El Chorrillo,Parada,36.7375561590832,-4.37434635180787,,http://www.emtmalaga.es/emt-mobile/informacionParada.html?codParada=3451,,,Europe/Madrid
1148,3452,Escritor Manuel Solano - Escritor Fco. José Fernádez,Parada,36.736018224743,-4.37373245087165,,http://www.emtmalaga.es/emt-mobile/informacionParada.html?codParada=3452,,,Europe/Madrid
1149,3453,Escritor Manuel Solano - Méndez Sotomayor,Parada,36.7338401769087,-4.37224502840516,,http://www.emtmalaga.es/emt-mobile/informacionParada.html?codParada=3453,,,Europe/Madrid
1150,3454,Eucaliptos - Viaducto,Parada,36.7311572366937,-4.3710456947101,,http://www.emtmalaga.es/emt-mobile/informacionParada.html?codParada=3454,,,Europe/Madrid
1151,3455,Eucaliptos - Bda. La Mosca,Parada,36.7298222754932,-4.37097139660366,,http://www.emtmalaga.es/emt-mobile/informacionParada.html?codParada=3455,,,Europe/Madrid
1152,3457,Amador de los Ríos - Eucaliptus,Parada,36.7274100789845,-4.37065883112624,,http://www.emtmalaga.es/emt-mobile/informacionParada.html?codParada=3457,,,Europe/Madrid
1153,3458,Amador de los Ríos - Manuel del Palacio,Parada,36.7250939694593,-4.36935812132357,,http://www.emtmalaga.es/emt-mobile/informacionParada.html?codParada=3458,,,Europe/Madrid
1159,3502,Paseo de Salvador Rueda - Limonar,Parada,36.7238418523066,-4.39942533168723,,http://www.emtmalaga.es/emt-mobile/informacionParada.html?codParada=3502,,,Europe/Madrid
1160,3503,Paseo de Salvador Rueda - Pinillo,Parada,36.7251047347473,-4.40166248677831,,http://www.emtmalaga.es/emt-mobile/informacionParada.html?codParada=3503,,,Europe/Madrid
1161,3504,Paseo de Salvador Rueda - Enlace,Parada,36.7255964084432,-4.4038853914797,,http://www.emtmalaga.es/emt-mobile/informacionParada.html?codParada=3504,,,Europe/Madrid
1162,3505,Paseo de Salvador Rueda - Ventaja Alta,Parada,36.7270047427389,-4.40561623024674,,http://www.emtmalaga.es/emt-mobile/informacionParada.html?codParada=3505,,,Europe/Madrid
1163,3506,Paseo de Calvo Sotelo - Ventajilla,Parada,36.7259002517923,-4.40605247365794,,http://www.emtmalaga.es/emt-mobile/informacionParada.html?codParada=3506,,,Europe/Madrid
1164,3507,Camino de Gibralfaro,Parada,36.7246482018519,-4.40612643959012,,http://www.emtmalaga.es/emt-mobile/informacionParada.html?codParada=3507,,,Europe/Madrid
1165,3508,Camino de Gibralfaro - Parador Nacional,Parada,36.7232989942635,-4.408812781035,,http://www.emtmalaga.es/emt-mobile/informacionParada.html?codParada=3508,,,Europe/Madrid
1166,3551,Camino de Gibralfaro - Castillo,Parada,36.7233192780833,-4.41015438612139,,http://www.emtmalaga.es/emt-mobile/informacionParada.html?codParada=3551,,,Europe/Madrid
1167,3552,Camino de Gibralfaro - Parador Nacional,Parada,36.7234415114886,-4.40867454476334,,http://www.emtmalaga.es/emt-mobile/informacionParada.html?codParada=3552,,,Europe/Madrid
1168,3553,Camino de Gibralfaro,Parada,36.7244243398484,-4.40580472507166,,http://www.emtmalaga.es/emt-mobile/informacionParada.html?codParada=3553,,,Europe/Madrid
1169,3554,Paseo de Calvo Sotelo - Ventajilla,Parada,36.7258857766492,-4.40592602187418,,http://www.emtmalaga.es/emt-mobile/informacionParada.html?codParada=3554,,,Europe/Madrid
1170,3555,Paseo de Salvador Rueda - Ventaja Alta,Parada,36.7262532253818,-4.40519386169053,,http://www.emtmalaga.es/emt-mobile/informacionParada.html?codParada=3555,,,Europe/Madrid
1171,3556,Paseo de Salvador Rueda - Enlace,Parada,36.7255188048642,-4.40389162795023,,http://www.emtmalaga.es/emt-mobile/informacionParada.html?codParada=3556,,,Europe/Madrid
1172,3557,Paseo de Salvador Rueda - Pinillo,Parada,36.7250446188768,-4.40149878607939,,http://www.emtmalaga.es/emt-mobile/informacionParada.html?codParada=3557,,,Europe/Madrid
1173,3558,Paseo de Salvador Rueda - Limonar,Parada,36.7245815567803,-4.40000161530405,,http://www.emtmalaga.es/emt-mobile/informacionParada.html?codParada=3558,,,Europe/Madrid
1175,3602,Córdoba,Parada,36.7165478145359,-4.42203283676223,,http://www.emtmalaga.es/emt-mobile/informacionParada.html?codParada=3602,,,Europe/Madrid
1177,3608,Plaza Francisco Silvela,Parada,36.7285598701887,-4.41160906378129,,http://www.emtmalaga.es/emt-mobile/informacionParada.html?codParada=3608,,,Europe/Madrid
1178,3609,Conde Ureña,Parada,36.7297140179656,-4.41027279322474,,http://www.emtmalaga.es/emt-mobile/informacionParada.html?codParada=3609,,,Europe/Madrid
1179,3610,Conde Ureña,Parada,36.7284380787525,-4.41060966021465,,http://www.emtmalaga.es/emt-mobile/informacionParada.html?codParada=3610,,,Europe/Madrid
1180,3615,Barcenillas,Parada,36.7269545299227,-4.41238317661096,,http://www.emtmalaga.es/emt-mobile/informacionParada.html?codParada=3615,,,Europe/Madrid
1181,3616,Pinos,Parada,36.7260965044573,-4.41272071607928,,http://www.emtmalaga.es/emt-mobile/informacionParada.html?codParada=3616,,,Europe/Madrid
1182,3617,Pinosol,Parada,36.7260135172664,-4.4110731155551,,http://www.emtmalaga.es/emt-mobile/informacionParada.html?codParada=3617,,,Europe/Madrid
1183,3618,Pinosol,Parada,36.7267878609018,-4.4106967811688,,http://www.emtmalaga.es/emt-mobile/informacionParada.html?codParada=3618,,,Europe/Madrid
1184,3619,Barcenillas,Parada,36.7269770906116,-4.41227545105368,,http://www.emtmalaga.es/emt-mobile/informacionParada.html?codParada=3619,,,Europe/Madrid
1185,3651,Conde Ureña,Parada,36.7293250646029,-4.40943636909701,,http://www.emtmalaga.es/emt-mobile/informacionParada.html?codParada=3651,,,Europe/Madrid
1186,3652,Conde Ureña,Parada,36.7284157454308,-4.41022529225814,,http://www.emtmalaga.es/emt-mobile/informacionParada.html?codParada=3652,,,Europe/Madrid
1187,3653,Conde Ureña,Parada,36.7298035445055,-4.41050028545091,,http://www.emtmalaga.es/emt-mobile/informacionParada.html?codParada=3653,,,Europe/Madrid
1188,3654,Plaza Francisco Silvela,Parada,36.7282982593783,-4.41195366510198,,http://www.emtmalaga.es/emt-mobile/informacionParada.html?codParada=3654,,,Europe/Madrid
1189,3655,San Patricio,Parada,36.7286897746442,-4.41396024999548,,http://www.emtmalaga.es/emt-mobile/informacionParada.html?codParada=3655,,,Europe/Madrid
1196,3703,Camino de los Almendrales - Toquero,Parada,36.7346272101781,-4.41237480256689,,http://www.emtmalaga.es/emt-mobile/informacionParada.html?codParada=3703,,,Europe/Madrid
1197,3704,Camino de los Almendrales - Seminario,Parada,36.7345627246547,-4.40848104559704,,http://www.emtmalaga.es/emt-mobile/informacionParada.html?codParada=3704,,,Europe/Madrid
1198,3705,Camino de los Almendrales - Sierra Blanquilla,Parada,36.735053588129,-4.4063224512026,,http://www.emtmalaga.es/emt-mobile/informacionParada.html?codParada=3705,,,Europe/Madrid
1199,3707,Camino de los Almendrales - Toquero,Parada,36.7347927344584,-4.41245307722119,,http://www.emtmalaga.es/emt-mobile/informacionParada.html?codParada=3707,,,Europe/Madrid
1200,3709,Olletas - Camino del Colmenar,Parada,36.7351199856472,-4.41490105681799,,http://www.emtmalaga.es/emt-mobile/informacionParada.html?codParada=3709,,,Europe/Madrid
1203,3712,Camino Colmenar - Los Antonios,Parada,36.7368916399538,-4.41348642112768,,http://www.emtmalaga.es/emt-mobile/informacionParada.html?codParada=3712,,,Europe/Madrid
1204,3713,Cuesta Tasara,Parada,36.7385912348546,-4.41245303918027,,http://www.emtmalaga.es/emt-mobile/informacionParada.html?codParada=3713,,,Europe/Madrid
1205,3714,Plaza de  Olletas,Parada,36.7338679046581,-4.41572361003343,,http://www.emtmalaga.es/emt-mobile/informacionParada.html?codParada=3714,,,Europe/Madrid
1206,3715,Plaza Maestro Artola,Parada,36.7294236160649,-4.41815541520623,,http://www.emtmalaga.es/emt-mobile/informacionParada.html?codParada=3715,,,Europe/Madrid
1207,3716,Camino de los Almendrales - Seminario,Parada,36.7349677281874,-4.409160741072,,http://www.emtmalaga.es/emt-mobile/informacionParada.html?codParada=3716,,,Europe/Madrid
1208,3717,Camino de Colmenar - Monte Dorado,Parada,36.7418370005383,-4.41193814247212,,http://www.emtmalaga.es/emt-mobile/informacionParada.html?codParada=3717,,,Europe/Madrid
1211,3720,Camino de Colmenar - Res. Sta. Clara,Parada,36.7485535811744,-4.4078054053895,,http://www.emtmalaga.es/emt-mobile/informacionParada.html?codParada=3720,,,Europe/Madrid
1212,3721,Olletas - Camino del Colmenar,Parada,36.7349522992107,-4.41548374407594,,http://www.emtmalaga.es/emt-mobile/informacionParada.html?codParada=3721,,,Europe/Madrid
1213,3722,Av. Andalucía,Parada,36.7166377810389,-4.428801407144,,http://www.emtmalaga.es/emt-mobile/informacionParada.html?codParada=3722,,,Europe/Madrid
5816,3723,Cmno. del Colmenar - Bradamante,Parada,36.7430583000225,-4.41102549435628,,http://www.emtmalaga.es/emt-mobile/informacionParada.html?codParada=3723,,,Europe/Madrid
1214,3751,Camino de Colmenar - Monte Dorado,Parada,36.7417026362542,-4.4121972352303,,http://www.emtmalaga.es/emt-mobile/informacionParada.html?codParada=3751,,,Europe/Madrid
1215,3752,Cuesta Tasara,Parada,36.7382443844947,-4.41266177042067,,http://www.emtmalaga.es/emt-mobile/informacionParada.html?codParada=3752,,,Europe/Madrid
1216,3753,Camino Colmenar - Los Antonios,Parada,36.7366614367049,-4.41280381622901,,http://www.emtmalaga.es/emt-mobile/informacionParada.html?codParada=3753,,,Europe/Madrid
1217,3755,Escritor Antonio Ramos - Colegio,Parada,36.7369124814753,-4.41527704421907,,http://www.emtmalaga.es/emt-mobile/informacionParada.html?codParada=3755,,,Europe/Madrid
1218,3756,Escritor Antonio Ramos,Parada,36.7376387547203,-4.4175205235853,,http://www.emtmalaga.es/emt-mobile/informacionParada.html?codParada=3756,,,Europe/Madrid
1219,3757,Avda. Manuel Gorría - Rotonda,Parada,36.7367710401626,-4.41802557046084,,http://www.emtmalaga.es/emt-mobile/informacionParada.html?codParada=3757,,,Europe/Madrid
1220,3758,Avda. Manuel Gorría,Parada,36.7362731780054,-4.41662696789071,,http://www.emtmalaga.es/emt-mobile/informacionParada.html?codParada=3758,,,Europe/Madrid
1221,3759,Camino de Colmenar - Olletas,Parada,36.7346972719382,-4.4159998532985,,http://www.emtmalaga.es/emt-mobile/informacionParada.html?codParada=3759,,,Europe/Madrid
1224,3762,Plaza del Maestro Artola,Parada,36.7294260887398,-4.41814534514163,,http://www.emtmalaga.es/emt-mobile/informacionParada.html?codParada=3762,,,Europe/Madrid
1225,3763,Tejeros,Parada,36.7289755775847,-4.41470625793778,,http://www.emtmalaga.es/emt-mobile/informacionParada.html?codParada=3763,,,Europe/Madrid
1226,3764,Avda. Manuel Gorria,Parada,36.7365953049709,-4.41704398381,,http://www.emtmalaga.es/emt-mobile/informacionParada.html?codParada=3764,,,Europe/Madrid
1227,3765,Escritor Antonio Ramos - Avda. Pascueros,Parada,36.7375201533961,-4.41785976931014,,http://www.emtmalaga.es/emt-mobile/informacionParada.html?codParada=3765,,,Europe/Madrid
1228,3766,Escritor Antonio Ramos - Colegio,Parada,36.7367918585333,-4.41567992016395,,http://www.emtmalaga.es/emt-mobile/informacionParada.html?codParada=3766,,,Europe/Madrid
5817,3767,Cmno. del Colmenar - Pérez de Ayala,Parada,36.743115257104,-4.41112607719436,,http://www.emtmalaga.es/emt-mobile/informacionParada.html?codParada=3767,,,Europe/Madrid
1229,3901,Paseo de los Curas,Parada,36.7188899083199,-4.41564402118765,,http://www.emtmalaga.es/emt-mobile/informacionParada.html?codParada=3901,,,Europe/Madrid
1230,3902,Pso. Antonio Machado - Ingeniero Garnica,Parada,36.7088306969542,-4.42857747308821,,http://www.emtmalaga.es/emt-mobile/informacionParada.html?codParada=3902,,,Europe/Madrid
1231,3903,Pso. Antonio Machado - Tomas Echeverria,Parada,36.7025216039635,-4.43373112126728,,http://www.emtmalaga.es/emt-mobile/informacionParada.html?codParada=3903,,,Europe/Madrid
1232,3904,Pacifico - Princesa,Parada,36.6997856788964,-4.4366410126927,,http://www.emtmalaga.es/emt-mobile/informacionParada.html?codParada=3904,,,Europe/Madrid
1233,3905,Pacifico - Carril de la Chupa,Parada,36.6936438061459,-4.44101491717577,,http://www.emtmalaga.es/emt-mobile/informacionParada.html?codParada=3905,,,Europe/Madrid
1234,3906,Pacifico - Diputacion,Parada,36.6899735308372,-4.44314801950059,,http://www.emtmalaga.es/emt-mobile/informacionParada.html?codParada=3906,,,Europe/Madrid
1235,3907,Pacifico - Moliere,Parada,36.6838330414652,-4.44680194483466,,http://www.emtmalaga.es/emt-mobile/informacionParada.html?codParada=3907,,,Europe/Madrid
1236,3951,Pacifico - Sacaba Beach,Parada,36.6807856906671,-4.448059858417,,http://www.emtmalaga.es/emt-mobile/informacionParada.html?codParada=3951,,,Europe/Madrid
1237,3952,Pacifico - Moliere,Parada,36.6845635482781,-4.44581238876397,,http://www.emtmalaga.es/emt-mobile/informacionParada.html?codParada=3952,,,Europe/Madrid
1238,3953,Pacifico - Diputacion,Parada,36.6886920047026,-4.4433944481314,,http://www.emtmalaga.es/emt-mobile/informacionParada.html?codParada=3953,,,Europe/Madrid
1239,3954,Pacifico - Carril de la Chupa,Parada,36.6936025385358,-4.44055623756562,,http://www.emtmalaga.es/emt-mobile/informacionParada.html?codParada=3954,,,Europe/Madrid
1240,3955,Pacifico - Princesa,Parada,36.699645859682,-4.43621240936374,,http://www.emtmalaga.es/emt-mobile/informacionParada.html?codParada=3955,,,Europe/Madrid
1241,3956,Pso. Antonio Machado - Tomas Echeverria,Parada,36.7024430493446,-4.43336113253409,,http://www.emtmalaga.es/emt-mobile/informacionParada.html?codParada=3956,,,Europe/Madrid
1242,3957,Pso. Antonio Machado -  Ingeniero Garnica,Parada,36.7086599210798,-4.42827214288512,,http://www.emtmalaga.es/emt-mobile/informacionParada.html?codParada=3957,,,Europe/Madrid
1245,4202,Blas de Lezo,Parada,36.7281480249985,-4.4347378539486,,http://www.emtmalaga.es/emt-mobile/informacionParada.html?codParada=4202,,,Europe/Madrid
1246,4203,Avda. Valle Inclán,Parada,36.7365120342492,-4.43361648478705,,http://www.emtmalaga.es/emt-mobile/informacionParada.html?codParada=4203,,,Europe/Madrid
1247,4402,Mesonero Romanos,Parada,36.720529277588,-4.46013093197405,,http://www.emtmalaga.es/emt-mobile/informacionParada.html?codParada=4402,,,Europe/Madrid
1251,4406,Pierrot - Cortijo Alto,Parada,36.7119778574962,-4.46270975653326,,http://www.emtmalaga.es/emt-mobile/informacionParada.html?codParada=4406,,,Europe/Madrid
1252,4407,Av. Jorge L. Borges - José Ribera,Parada,36.7205932147119,-4.47114270537361,,http://www.emtmalaga.es/emt-mobile/informacionParada.html?codParada=4407,,,Europe/Madrid
1253,4445,Av. Plutarco - Eolo,Parada,36.7208966555162,-4.47544858340645,,http://www.emtmalaga.es/emt-mobile/informacionParada.html?codParada=4445,,,Europe/Madrid
1255,4452,Avda. Jorge Luis Borges - Gregorio Prieto,Parada,36.7198448159669,-4.46313425472698,,http://www.emtmalaga.es/emt-mobile/informacionParada.html?codParada=4452,,,Europe/Madrid
1257,4454,Pierrot - Cortijo Alto,Parada,36.7119963757061,-4.4627096386805,,http://www.emtmalaga.es/emt-mobile/informacionParada.html?codParada=4454,,,Europe/Madrid
1258,4455,Av. Jorge L. Borges - José Ribera,Parada,36.7203561786714,-4.47117000044145,,http://www.emtmalaga.es/emt-mobile/informacionParada.html?codParada=4455,,,Europe/Madrid
1264,6202,Aristofanes,Parada,36.7219255487279,-4.48260426124998,,http://www.emtmalaga.es/emt-mobile/informacionParada.html?codParada=6202,,,Europe/Madrid
4216,6205,Arquitecto Luis Bono,Parada,36.7417396780372,-4.48987573388039,,http://www.emtmalaga.es/emt-mobile/informacionParada.html?codParada=6205,,,Europe/Madrid
4217,6206,Sirio,Parada,36.7387326623227,-4.49088692667914,,http://www.emtmalaga.es/emt-mobile/informacionParada.html?codParada=6206,,,Europe/Madrid
4218,6207,Altair - Antares,Parada,36.7378814770829,-4.48880955579684,,http://www.emtmalaga.es/emt-mobile/informacionParada.html?codParada=6207,,,Europe/Madrid
4219,6208,Altair - Vesta,Parada,36.7369314056433,-4.48682874443908,,http://www.emtmalaga.es/emt-mobile/informacionParada.html?codParada=6208,,,Europe/Madrid
4220,6209,Astrea,Parada,36.7343272468313,-4.48834419253269,,http://www.emtmalaga.es/emt-mobile/informacionParada.html?codParada=6209,,,Europe/Madrid
4221,6210,Av. Pintor Rodrigo Vivar,Parada,36.7319809562917,-4.48943182828836,,http://www.emtmalaga.es/emt-mobile/informacionParada.html?codParada=6210,,,Europe/Madrid
1266,6252,Aristofanes,Parada,36.7219921855917,-4.48241496601356,,http://www.emtmalaga.es/emt-mobile/informacionParada.html?codParada=6252,,,Europe/Madrid
1268,6254,Av Pintor Manuel Barbadillo,Parada,36.7270396703226,-4.47161018478928,,http://www.emtmalaga.es/emt-mobile/informacionParada.html?codParada=6254,,,Europe/Madrid
5878,6255,Cenit,Parada,36.7423812597791,-4.48294892909855,,http://www.emtmalaga.es/emt-mobile/informacionParada.html?codParada=6255,,,Europe/Madrid
5879,6256,Fuente Alegre - Cenit,Parada,36.7443854965024,-4.48324263098571,,http://www.emtmalaga.es/emt-mobile/informacionParada.html?codParada=6256,,,Europe/Madrid
5880,6257,Fuente Alegre - Garibaldi,Parada,36.7469538520339,-4.48109552266903,,http://www.emtmalaga.es/emt-mobile/informacionParada.html?codParada=6257,,,Europe/Madrid
5881,6258,Mariana Pineda,Parada,36.7488816741431,-4.48035389187632,,http://www.emtmalaga.es/emt-mobile/informacionParada.html?codParada=6258,,,Europe/Madrid
5882,6259,Platón,Parada,36.7482304754363,-4.4796457886963,,http://www.emtmalaga.es/emt-mobile/informacionParada.html?codParada=6259,,,Europe/Madrid
5883,6260,Sustancia,Parada,36.7455439536977,-4.48065564039053,,http://www.emtmalaga.es/emt-mobile/informacionParada.html?codParada=6260,,,Europe/Madrid
5884,6261,Gloria Fuertes,Parada,36.7450066380636,-4.4792769849567,,http://www.emtmalaga.es/emt-mobile/informacionParada.html?codParada=6261,,,Europe/Madrid
5885,6262,Galaxia - Éter,Parada,36.7424801295204,-4.47930112483784,,http://www.emtmalaga.es/emt-mobile/informacionParada.html?codParada=6262,,,Europe/Madrid
6059,6263,Galaxia,Parada,36.7410884187238,-4.48107540610141,,http://www.emtmalaga.es/emt-mobile/informacionParada.html?codParada=6263,,,Europe/Madrid
1269,6501,Ingenierías,Parada,36.7161772192877,-4.49391194182043,,http://www.emtmalaga.es/emt-mobile/informacionParada.html?codParada=6501,,,Europe/Madrid
1270,6502,Louis Pasteur - Informatica,Parada,36.7158256324203,-4.47616098336537,,http://www.emtmalaga.es/emt-mobile/informacionParada.html?codParada=6502,,,Europe/Madrid
4256,6504,Psicología,Parada,36.7161332882074,-4.49740067127265,,http://www.emtmalaga.es/emt-mobile/informacionParada.html?codParada=6504,,,Europe/Madrid
1272,6551,Ingenierías,Parada,36.7160331062076,-4.49391892974578,,http://www.emtmalaga.es/emt-mobile/informacionParada.html?codParada=6551,,,Europe/Madrid
1273,6552,Ciencias de la Salud,Parada,36.7153157411462,-4.50003367964394,,http://www.emtmalaga.es/emt-mobile/informacionParada.html?codParada=6552,,,Europe/Madrid
1274,6553,Louis Pasteur - Complejo Deportivo,Parada,36.7162480668654,-4.48009736961295,,http://www.emtmalaga.es/emt-mobile/informacionParada.html?codParada=6553,,,Europe/Madrid
3817,7101,Av. Aurora - Pza. Enrique Navarro Sur,Parada,36.7157930257083,-4.42853206905168,,http://www.emtmalaga.es/emt-mobile/informacionParada.html?codParada=7101,,,Europe/Madrid
3816,7201,Av. Aurora - Pza. Enrique Navarro Norte,Parada,36.7159444876976,-4.42840977832422,,http://www.emtmalaga.es/emt-mobile/informacionParada.html?codParada=7201,,,Europe/Madrid
1275,7301,San Vicente Paul,Parada,36.7248758059095,-4.39610506296448,,http://www.emtmalaga.es/emt-mobile/informacionParada.html?codParada=7301,,,Europe/Madrid
1276,7302,Miguel Indurain - Marcos Obregon,Parada,36.7246891337363,-4.3930304723655,,http://www.emtmalaga.es/emt-mobile/informacionParada.html?codParada=7302,,,Europe/Madrid
1277,7303,Miguel Indurain - Sibelius,Parada,36.7261332291113,-4.3914884399103,,http://www.emtmalaga.es/emt-mobile/informacionParada.html?codParada=7303,,,Europe/Madrid
1279,7305,Manuel Seco - Antonio Mata,Parada,36.7312234238416,-4.39142918038535,,http://www.emtmalaga.es/emt-mobile/informacionParada.html?codParada=7305,,,Europe/Madrid
1280,7306,Mayoral,Parada,36.732596695587,-4.39425199544691,,http://www.emtmalaga.es/emt-mobile/informacionParada.html?codParada=7306,,,Europe/Madrid
1281,7307,Limonar - Goethe,Parada,36.7279377549771,-4.39838572999088,,http://www.emtmalaga.es/emt-mobile/informacionParada.html?codParada=7307,,,Europe/Madrid
1282,7308,Limonar - Ramos Carrion,Parada,36.7266790227075,-4.39854512099102,,http://www.emtmalaga.es/emt-mobile/informacionParada.html?codParada=7308,,,Europe/Madrid
1284,7310,Federico Fellini,Parada,36.7273038709512,-4.38878448267032,,http://www.emtmalaga.es/emt-mobile/informacionParada.html?codParada=7310,,,Europe/Madrid
1285,7311,José María Amado - Federico Fellini,Parada,36.7274196801662,-4.38647340332761,,http://www.emtmalaga.es/emt-mobile/informacionParada.html?codParada=7311,,,Europe/Madrid
1286,7312,José María Amado - Linguista Manuel Seco,Parada,36.7301005949128,-4.38944418359291,,http://www.emtmalaga.es/emt-mobile/informacionParada.html?codParada=7312,,,Europe/Madrid
3514,7313,Manuel Seco -Dr. Juan Maldonado,Parada,36.7315428668315,-4.39275940017637,,http://www.emtmalaga.es/emt-mobile/informacionParada.html?codParada=7313,,,Europe/Madrid
1287,7501,Alameda Principal - Norte,Parada,36.7179126264428,-4.4218697085048,,http://www.emtmalaga.es/emt-mobile/informacionParada.html?codParada=7501,,,Europe/Madrid
3536,7502,Aeropuerto - Llegadas,Parada,36.6771571776561,-4.49075673343644,,http://www.emtmalaga.es/emt-mobile/informacionParada.html?codParada=7502,,,Europe/Madrid
1288,7801,Cortijo de Maza,Parada,36.64636358663,-4.5032762744627,,http://www.emtmalaga.es/emt-mobile/informacionParada.html?codParada=7801,,,Europe/Madrid
1289,7802,Camino del Pilar - Pozos Blancos,Parada,36.6480436109034,-4.50397518797232,,http://www.emtmalaga.es/emt-mobile/informacionParada.html?codParada=7802,,,Europe/Madrid
1290,7803,Camino del Pilar - Realenga de Maza,Parada,36.6500813265251,-4.50470832551618,,http://www.emtmalaga.es/emt-mobile/informacionParada.html?codParada=7803,,,Europe/Madrid
1291,7804,Remedios Varo,Parada,36.6571089334531,-4.50543672864048,,http://www.emtmalaga.es/emt-mobile/informacionParada.html?codParada=7804,,,Europe/Madrid
1292,7805,Mercedes Formica,Parada,36.6573495428965,-4.5030892129512,,http://www.emtmalaga.es/emt-mobile/informacionParada.html?codParada=7805,,,Europe/Madrid
1293,7806,María Martínez Sierra,Parada,36.6584485084021,-4.50228848866795,,http://www.emtmalaga.es/emt-mobile/informacionParada.html?codParada=7806,,,Europe/Madrid
1294,7807,Madre Asunción Soler,Parada,36.6601923886853,-4.49975236416149,,http://www.emtmalaga.es/emt-mobile/informacionParada.html?codParada=7807,,,Europe/Madrid
1295,7808,Camino del Pilar - Ctra. Coín,Parada,36.6613723788614,-4.50638972323509,,http://www.emtmalaga.es/emt-mobile/informacionParada.html?codParada=7808,,,Europe/Madrid
1296,7809,Camino de la Sierra - Camino del Pilar,Parada,36.6592412827572,-4.50705622060092,,http://www.emtmalaga.es/emt-mobile/informacionParada.html?codParada=7809,,,Europe/Madrid
1297,7810,Camino de la Sierra - Aureliano Buendía,Parada,36.6583928890919,-4.50800471557112,,http://www.emtmalaga.es/emt-mobile/informacionParada.html?codParada=7810,,,Europe/Madrid
1298,7811,Camino de la Sierra,Parada,36.6565196998258,-4.50979448915469,,http://www.emtmalaga.es/emt-mobile/informacionParada.html?codParada=7811,,,Europe/Madrid
1299,7812,Camino de la Sierra - Sofía,Parada,36.6543094800472,-4.51171530674592,,http://www.emtmalaga.es/emt-mobile/informacionParada.html?codParada=7812,,,Europe/Madrid
1300,7813,Hungría,Parada,36.6532543413185,-4.51199999477224,,http://www.emtmalaga.es/emt-mobile/informacionParada.html?codParada=7813,,,Europe/Madrid
1301,7814,Hungría - Guillermo Tell,Parada,36.6507129739511,-4.5068488202869,,http://www.emtmalaga.es/emt-mobile/informacionParada.html?codParada=7814,,,Europe/Madrid
1302,7815,Camino Pilar - Realenga de Maza,Parada,36.650144917276,-4.50477351908368,,http://www.emtmalaga.es/emt-mobile/informacionParada.html?codParada=7815,,,Europe/Madrid
1303,7816,Camino Pilar - Pozos Blancos,Parada,36.6482291435057,-4.50410968216456,,http://www.emtmalaga.es/emt-mobile/informacionParada.html?codParada=7816,,,Europe/Madrid
5159,9903,Paseo de los Curas,Parada,36.7187477390819,-4.41534116866165,,http://www.emtmalaga.es/emt-mobile/informacionParada.html?codParada=9903,,,Europe/Madrid
5061,9904,Paseo de los Curas - Plaza de la Marina,Parada,36.7179232076433,-4.41927462818236,,http://www.emtmalaga.es/emt-mobile/informacionParada.html?codParada=9904,,,Europe/Madrid
5160,9905,Plaza de la Marina,Parada,36.7169384883578,-4.42023754121881,,http://www.emtmalaga.es/emt-mobile/informacionParada.html?codParada=9905,,,Europe/Madrid
5169,9913,Alameda Colón,Parada,36.71338113853,-4.42420855166575,,http://www.emtmalaga.es/emt-mobile/informacionParada.html?codParada=9913,,,Europe/Madrid
